[{"id":"1-10556813199","n":"West Hill Care Home","pc":"DA1 2GA","lat":51.4461546,"lng":0.2102792,"addr":"Constance Grove","town":"Dartford","rgn":"South East","la":"Kent","beds":77,"ty":["Nursing homes"],"sp":["Caring for adults over 65 yrs","Caring for adults under 65 yrs","Dementia","Physical disabilities","Sensory impairment"],"r":null,"rs":null,"re":null,"rc":null,"rr":null,"rw":null,"ins":"2022-08-11"},{"id":"1-10557588274","n":"Hebburn Manor","pc":"NE31 1YQ","lat":54.9776419,"lng":-1.5019958,"addr":"Victoria Road East","town":"Hebburn","rgn":"North East","la":"South Tyneside","beds":60,"ty":["Nursing homes"],"sp":["Caring for adults over 65 yrs","Caring for adults under 65 yrs","Dementia"],"r":null,"rs":null,"re":null,"rc":null,"rr":null,"rw":null,"ins":"2022-09-14"},{"id":"1-10570704049","n":"Gateway House","pc":"S25 2PP","lat":53.3739795,"lng":-1.2102775,"addr":"149-151 Laughton Road, Dinnington","town":"Sheffield","rgn":"Yorkshire & Humberside","la":"Rotherham","beds":6,"ty":["Residential homes"],"sp":["Caring for adults under 65 yrs","Learning disabilities","Mental health conditions","Sensory impairment"],"r":"Requires improvement","rs":"Requires improvement","re":"Good","rc":"Good","rr":"Good","rw":"Requires improvement","ins":"2022-05-23"},{"id":"1-10572389871","n":"Waterside Court Care Home","pc":"OX10 9EG","lat":51.5883456,"lng":-1.1296692,"addr":"26 Winterbrook","town":"Wallingford","rgn":"South East","la":"Oxfordshire","beds":70,"ty":["Residential homes"],"sp":["Caring for adults over 65 yrs","Caring for adults under 65 yrs","Dementia"],"r":"Good","rs":"Good","re":"Good","rc":"Good","rr":"Good","rw":"Good","ins":"2022-05-19"},{"id":"1-105835715","n":"Brockfield House","pc":"NN9 6QQ","lat":52.331164,"lng":-0.5672034,"addr":"Villa Lane, Stanwick","town":"Wellingborough","rgn":"East Midlands","la":"North Northamptonshire","beds":45,"ty":["Nursing homes"],"sp":["Dementia","Mental health conditions"],"r":null,"rs":null,"re":null,"rc":null,"rr":null,"rw":null,"ins":"2022-11-07"},{"id":"1-1058388579","n":"Puddingstone Grange","pc":"SE18 3RD","lat":51.4812224,"lng":0.0736406,"addr":"82 Plumstead Common Road, Plumstead","town":"London","rgn":"London","la":"Greenwich","beds":62,"ty":["Nursing homes","Residential homes"],"sp":["Caring for adults over 65 yrs","Caring for adults under 65 yrs","Dementia","Mental health conditions"],"r":"Good","rs":"Good","re":"Good","rc":"Good","rr":"Good","rw":"Good","ins":"2022-09-28"},{"id":"1-105844767","n":"Bradstowe Lodge","pc":"CT10 1QL","lat":51.356441,"lng":1.4413286,"addr":"22 Victoria Parade","town":"Broadstairs","rgn":"South East","la":"Kent","beds":27,"ty":["Residential homes"],"sp":["Caring for adults over 65 yrs"],"r":null,"rs":null,"re":null,"rc":null,"rr":null,"rw":null,"ins":"2023-02-28"},{"id":"1-105854023","n":"Eventide Residential Home Limited","pc":"EX23 8RQ","lat":50.8355324,"lng":-4.5466072,"addr":"22 Downs View","town":"Bude","rgn":"South West","la":"Cornwall","beds":18,"ty":["Residential homes"],"sp":["Caring for adults over 65 yrs","Caring for adults under 65 yrs"],"r":"Good","rs":"Good","re":"Good","rc":"Good","rr":"Good","rw":"Good","ins":"2023-05-30"},{"id":"1-105855203","n":"Oakhurst Court Nursing Home","pc":"RH9 8JY","lat":51.2162665,"lng":-0.0588298,"addr":"Tilburstow Hill Road, South Godstone","town":"Godstone","rgn":"South East","la":"Surrey","beds":57,"ty":["Nursing homes"],"sp":["Caring for adults over 65 yrs","Dementia"],"r":"Good","rs":"Good","re":"Good","rc":"Good","rr":"Good","rw":"Good","ins":"2022-06-13"},{"id":"1-105860838","n":"Aronel Cottage Care Home Limited","pc":"PO22 8BQ","lat":50.7909744,"lng":-0.6716342,"addr":"5-11 Highfield Road","town":"Bognor Regis","rgn":"South East","la":"West Sussex","beds":38,"ty":["Nursing homes"],"sp":["Caring for adults over 65 yrs"],"r":null,"rs":null,"re":null,"rc":null,"rr":null,"rw":null,"ins":"2022-03-14"},{"id":"1-105863325","n":"Ash Court Care Centre - Camden","pc":"NW5 2PW","lat":51.5524806,"lng":-0.138484,"addr":"Ash Mews, Ascham Street","town":"London","rgn":"London","la":"Camden","beds":62,"ty":["Nursing homes","Rehabilitation (illness/injury)"],"sp":["Caring for adults over 65 yrs","Caring for adults under 65 yrs","Dementia","Physical disabilities","Sensory impairment"],"r":"Requires improvement","rs":"Requires improvement","re":"Requires improvement","rc":"Good","rr":"Requires improvement","rw":"Requires improvement","ins":"2021-02-02"},{"id":"1-10587463951","n":"Sandhurst Court","pc":"WF13 3PZ","lat":53.6948889,"lng":-1.6584686,"addr":"7 Spen View, Dewsbury Moor","town":"Dewsbury","rgn":"Yorkshire & Humberside","la":"Kirklees","beds":8,"ty":["Residential homes"],"sp":["Caring for adults under 65 yrs","Learning disabilities","Physical disabilities"],"r":"Good","rs":"Good","re":"Good","rc":"Good","rr":"Good","rw":"Good","ins":"2022-12-21"},{"id":"1-105885228","n":"Heathlands Care Home","pc":"E4 6NF","lat":51.6184991,"lng":0.0020989,"addr":"2b Hatch Lane","town":"London","rgn":"London","la":"Waltham Forest","beds":84,"ty":["Nursing homes"],"sp":["Caring for adults over 65 yrs","Caring for adults under 65 yrs","Dementia","Physical disabilities","Sensory impairment"],"r":null,"rs":null,"re":null,"rc":null,"rr":null,"rw":null,"ins":"2023-07-21"},{"id":"1-105892230","n":"St Mary's Convent","pc":"DH8 0QD","lat":54.8912884,"lng":-1.8392301,"addr":"Ebchester","town":"Consett","rgn":"North East","la":"County Durham","beds":18,"ty":["Residential homes"],"sp":["Caring for adults over 65 yrs","Caring for adults under 65 yrs"],"r":"Good","rs":"Good","re":"Good","rc":"Good","rr":"Good","rw":"Good","ins":"2019-11-13"},{"id":"1-10591315840","n":"Firs Court","pc":"KT9 1NA","lat":51.3656595,"lng":-0.3077265,"addr":"370 Hook Road","town":"Chessington","rgn":"London","la":"Kingston upon Thames","beds":9,"ty":["Residential homes","Homecare agencies","Supported living"],"sp":["Caring for adults over 65 yrs","Caring for adults under 65 yrs","Dementia","Learning disabilities","Mental health conditions","Physical disabilities"],"r":"Good","rs":"Good","re":"Good","rc":"Good","rr":"Good","rw":"Good","ins":"2022-07-12"},{"id":"1-10592451713","n":"Hillside Lodge","pc":"CO9 1UY","lat":51.9374569,"lng":0.6411458,"addr":"12 Crossfields","town":"Halstead","rgn":"East","la":"Essex","beds":2,"ty":["Residential homes"],"sp":["Caring for adults over 65 yrs","Caring for adults under 65 yrs","Learning disabilities"],"r":"Good","rs":"Good","re":"Good","rc":"Good","rr":"Good","rw":"Requires improvement","ins":"2022-08-09"},{"id":"1-10598120420","n":"Queen Elizabeth Care Centre","pc":"TW20 0PJ","lat":51.4299366,"lng":-0.5746221,"addr":"Torin Court, Englefield Green","town":"Egham","rgn":"South East","la":"Surrey","beds":74,"ty":["Nursing homes"],"sp":["Caring for adults over 65 yrs","Caring for adults under 65 yrs","Dementia","Mental health conditions","Physical disabilities"],"r":null,"rs":null,"re":null,"rc":null,"rr":null,"rw":null,"ins":"2023-01-26"},{"id":"1-105995778","n":"Acorn Luxury Care Limited","pc":"BH3 7AS","lat":50.7375743,"lng":-1.8804636,"addr":"76 Wimborne Road","town":"Bournemouth","rgn":"South West","la":"Bournemouth, Christchurch and Poole","beds":13,"ty":["Residential homes"],"sp":["Caring for adults over 65 yrs","Caring for adults under 65 yrs","Caring for people whose rights are restricted under the Mental Health Act","Dementia","Mental health conditions","Physical disabilities","Sensory impairment","Substance misuse problems"],"r":"Good","rs":"Good","re":"Good","rc":"Good","rr":"Good","rw":"Good","ins":"2021-02-04"},{"id":"1-10602927766","n":"Frances Bolitho Care Home","pc":"TR18 2JR","lat":50.119806,"lng":-5.535058,"addr":"Polwithen Road","town":"St. Ives","rgn":"South West","la":"Cornwall","beds":45,"ty":["Nursing homes"],"sp":["Caring for adults over 65 yrs","Caring for adults under 65 yrs","Dementia","Mental health conditions"],"r":"Good","rs":"Good","re":"Good","rc":"Good","rr":"Good","rw":"Requires improvement","ins":"2022-08-10"},{"id":"1-10606048975","n":"Fairholme Nursing Home","pc":"TR14 8DN","lat":50.2182939,"lng":-5.2885039,"addr":"Roskear","town":"Camborne","rgn":"South West","la":"Cornwall","beds":60,"ty":["Nursing homes"],"sp":["Caring for adults over 65 yrs","Caring for adults under 65 yrs","Physical disabilities"],"r":"Good","rs":"Good","re":"Good","rc":"Good","rr":"Good","rw":"Good","ins":"2021-10-26"},{"id":"1-1060912125","n":"Simone's House","pc":"UB10 0AD","lat":51.539097,"lng":-0.473419,"addr":"41 & 41a Hillingdon Road","town":"Uxbridge","rgn":"London","la":"Hillingdon","beds":5,"ty":["Residential homes"],"sp":["Caring for adults over 65 yrs","Caring for adults under 65 yrs","Dementia","Learning disabilities","Mental health conditions","Physical disabilities","Sensory impairment"],"r":"Good","rs":"Good","re":"Good","rc":"Good","rr":"Good","rw":"Good","ins":"2023-05-04"},{"id":"1-10609925359","n":"Nelson House","pc":"NG5 6JE","lat":53.0017552,"lng":-1.1348851,"addr":"34 Nelson Road, Daybrook","town":"Nottingham","rgn":"East Midlands","la":"Nottinghamshire","beds":4,"ty":["Residential homes"],"sp":["Caring for adults over 65 yrs","Caring for adults under 65 yrs","Learning disabilities","Mental health conditions"],"r":null,"rs":null,"re":null,"rc":null,"rr":null,"rw":null,"ins":"2022-06-07"},{"id":"1-10609926286","n":"Ascot Grange Care Home","pc":"SL5 9PR","lat":51.3957807,"lng":-0.6595575,"addr":"Bagshot Road","town":"Ascot","rgn":"South East","la":"Windsor and Maidenhead","beds":106,"ty":["Nursing homes"],"sp":["Caring for adults over 65 yrs","Caring for adults under 65 yrs","Dementia","Physical disabilities","Sensory impairment"],"r":"Good","rs":"Good","re":"Good","rc":"Good","rr":"Good","rw":"Good","ins":"2021-06-18"},{"id":"1-10609926433","n":"Brentwood Arches Care Home","pc":"CM14 4NA","lat":51.617505,"lng":0.2925981,"addr":"Hubert Road","town":"Brentwood","rgn":"East","la":"Essex","beds":110,"ty":["Nursing homes"],"sp":["Caring for adults over 65 yrs","Caring for adults under 65 yrs","Dementia"],"r":"Good","rs":"Good","re":"Good","rc":"Good","rr":"Good","rw":"Good","ins":"2022-04-05"},{"id":"1-10609926491","n":"Cliveden Manor Care Home","pc":"SL7 1HX","lat":51.5804032,"lng":-0.7589846,"addr":"210 Little Marlow Road","town":"Marlow","rgn":"South East","la":"Buckinghamshire","beds":85,"ty":["Nursing homes"],"sp":["Caring for adults over 65 yrs","Caring for adults under 65 yrs","Dementia","Physical disabilities","Sensory impairment"],"r":null,"rs":null,"re":null,"rc":null,"rr":null,"rw":null,"ins":null},{"id":"1-10609926725","n":"Moorlands Lodge Care Home","pc":"GU26 6TJ","lat":51.1120135,"lng":-0.737383,"addr":"Portsmouth Road","town":"Hindhead","rgn":"South East","la":"Surrey","beds":106,"ty":["Nursing homes"],"sp":["Caring for adults over 65 yrs","Caring for adults under 65 yrs","Physical disabilities","Sensory impairment"],"r":null,"rs":null,"re":null,"rc":null,"rr":null,"rw":null,"ins":"2022-07-08"},{"id":"1-10609926752","n":"Rosebery Manor Care Home","pc":"KT18 5XA","lat":51.3145611,"lng":-0.2282702,"addr":"458 Reigate Road","town":"Epsom","rgn":"South East","la":"Surrey","beds":95,"ty":["Nursing homes"],"sp":["Caring for adults over 65 yrs","Physical disabilities","Sensory impairment"],"r":"Good","rs":"Good","re":"Good","rc":"Good","rr":"Good","rw":"Good","ins":"2022-06-22"},{"id":"1-10611735659","n":"Marmaduke","pc":"HU3 3BH","lat":53.7367735,"lng":-0.3615476,"addr":"50 Marmaduke Street","town":"Hull","rgn":"Yorkshire & Humberside","la":"Kingston upon Hull, City of","beds":18,"ty":["Nursing homes"],"sp":["Caring for adults over 65 yrs","Caring for adults under 65 yrs","Dementia","Mental health conditions","Physical disabilities"],"r":"Good","rs":"Good","re":"Good","rc":"Good","rr":"Good","rw":"Good","ins":"2022-08-10"},{"id":"1-10615566937","n":"Nayland House Care Home","pc":"CO6 4LA","lat":51.9736804,"lng":0.8691613,"addr":"Off Bear Street, Nayland","town":"Colchester","rgn":"East","la":"Suffolk","beds":54,"ty":["Residential homes"],"sp":["Caring for adults over 65 yrs","Caring for adults under 65 yrs","Dementia","Physical disabilities","Sensory impairment"],"r":"Good","rs":"Good","re":"Good","rc":"Good","rr":"Good","rw":"Good","ins":"2023-01-17"},{"id":"1-106162884","n":"Bethany House Care Home","pc":"DL5 4UD","lat":54.6323114,"lng":-1.5657051,"addr":"Village Close, Woodham Way","town":"Newton Aycliffe","rgn":"North East","la":"County Durham","beds":31,"ty":["Nursing homes"],"sp":["Caring for adults over 65 yrs","Caring for adults under 65 yrs","Physical disabilities"],"r":null,"rs":null,"re":null,"rc":null,"rr":null,"rw":null,"ins":"2020-01-21"},{"id":"1-1061637931","n":"Solent Lodge","pc":"PO14 2PG","lat":50.817965,"lng":-1.2125756,"addr":"105 Stubbington Lane","town":"Fareham","rgn":"South East","la":"Hampshire","beds":4,"ty":["Residential homes"],"sp":["Caring for adults over 65 yrs","Caring for adults under 65 yrs","Learning disabilities","Physical disabilities","Sensory impairment"],"r":null,"rs":null,"re":null,"rc":null,"rr":null,"rw":null,"ins":"2017-12-04"},{"id":"1-106167046","n":"Leazes Hall Care Home","pc":"NE16 6AJ","lat":54.9071708,"lng":-1.7419249,"addr":"The Leazes, Burnopfield","town":"Newcastle Upon Tyne","rgn":"North East","la":"County Durham","beds":50,"ty":["Nursing homes"],"sp":["Caring for adults over 65 yrs","Caring for adults under 65 yrs","Dementia","Learning disabilities"],"r":"Good","rs":"Good","re":"Good","rc":"Good","rr":"Good","rw":"Good","ins":"2022-01-25"},{"id":"1-106171008","n":"Jean Garwood House","pc":"CR2 6LX","lat":51.3648181,"lng":-0.103022,"addr":"25 Bramley Hill","town":"South Croydon","rgn":"London","la":"Croydon","beds":14,"ty":["Residential homes"],"sp":["Caring for adults under 65 yrs","Learning disabilities","Physical disabilities"],"r":"Good","rs":"Requires improvement","re":"Good","rc":"Good","rr":"Good","rw":"Good","ins":"2022-08-23"},{"id":"1-10617154657","n":"Hammerson House","pc":"N2 0BE","lat":51.575563,"lng":-0.172318,"addr":"50A The Bishops Avenue","town":"London","rgn":"London","la":"Barnet","beds":116,"ty":["Nursing homes"],"sp":["Caring for adults over 65 yrs","Dementia","Physical disabilities","Sensory impairment"],"r":"Good","rs":"Good","re":"Good","rc":"Good","rr":"Good","rw":"Good","ins":"2022-05-04"},{"id":"1-106191811","n":"Magnolia House","pc":"SM1 2EE","lat":51.3606271,"lng":-0.2093171,"addr":"19 Fairholme Road, Cheam","town":"Sutton","rgn":"London","la":"Sutton","beds":3,"ty":["Residential homes"],"sp":["Caring for adults over 65 yrs","Caring for adults under 65 yrs","Learning disabilities","Mental health conditions"],"r":null,"rs":null,"re":null,"rc":null,"rr":null,"rw":null,"ins":"2018-12-04"},{"id":"1-106199876","n":"North Bay House","pc":"NR32 3PW","lat":52.477241,"lng":1.696649,"addr":"Borrow Road","town":"Lowestoft","rgn":"East","la":"Suffolk","beds":29,"ty":["Residential homes"],"sp":["Caring for adults over 65 yrs","Dementia"],"r":null,"rs":null,"re":null,"rc":null,"rr":null,"rw":null,"ins":"2021-02-02"},{"id":"1-106200061","n":"Perran Bay Care Home","pc":"TR6 0BH","lat":50.345683,"lng":-5.1532105,"addr":"St Pirans Road","town":"Perranporth","rgn":"South West","la":"Cornwall","beds":40,"ty":["Residential homes"],"sp":["Caring for adults over 65 yrs"],"r":"Good","rs":"Good","re":"Good","rc":"Good","rr":"Good","rw":"Good","ins":"2018-08-09"},{"id":"1-106202577","n":"Cherrytree Residential Home","pc":"LE8 5TD","lat":52.5536597,"lng":-1.1504518,"addr":"123 Station Road, Countesthorpe","town":"Leicester","rgn":"East Midlands","la":"Leicestershire","beds":40,"ty":["Residential homes"],"sp":["Caring for adults over 65 yrs","Caring for adults under 65 yrs","Mental health conditions","Physical disabilities"],"r":"Good","rs":"Good","re":"Good","rc":"Good","rr":"Good","rw":"Good","ins":"2023-06-28"},{"id":"1-106202900","n":"Trinity Court Nursing Home","pc":"SW17 7HL","lat":51.4406573,"lng":-0.1653668,"addr":"165-167 Trinity Road, Tooting","town":"London","rgn":"London","la":"Wandsworth","beds":50,"ty":["Nursing homes"],"sp":["Caring for adults over 65 yrs","Caring for adults under 65 yrs","Dementia","Mental health conditions"],"r":"Good","rs":"Good","re":"Requires improvement","rc":"Good","rr":"Good","rw":"Good","ins":"2021-01-21"},{"id":"1-106240471","n":"Downhurst Residential Home Limited","pc":"W5 2DD","lat":51.5206823,"lng":-0.3108379,"addr":"76 Castlebar Road","town":"London","rgn":"London","la":"Ealing","beds":26,"ty":["Residential homes"],"sp":["Caring for adults over 65 yrs","Dementia"],"r":null,"rs":null,"re":null,"rc":null,"rr":null,"rw":null,"ins":"2023-06-06"},{"id":"1-106260202","n":"Elmwood Residential Home Limited","pc":"EX24 6QJ","lat":50.7260177,"lng":-3.0667382,"addr":"Swan Hill Road, Colyford","town":"Colyton","rgn":"South West","la":"Devon","beds":38,"ty":["Residential homes"],"sp":["Caring for adults over 65 yrs","Caring for adults under 65 yrs","Physical disabilities"],"r":null,"rs":null,"re":null,"rc":null,"rr":null,"rw":null,"ins":"2022-12-13"},{"id":"1-106260372","n":"Yew Tree Cottage Residential Home","pc":"TA20 3DB","lat":50.8891366,"lng":-2.9486152,"addr":"Hornsbury Hill","town":"Chard","rgn":"South West","la":"Somerset","beds":7,"ty":["Residential homes"],"sp":["Caring for adults over 65 yrs","Dementia"],"r":"Good","rs":"Good","re":"Good","rc":"Good","rr":"Good","rw":"Good","ins":"2021-02-02"},{"id":"1-10000812939","n":"Charlotte House","pc":"CH63 3DZ","lat":53.3455313,"lng":-3.0025802,"addr":"Church Road, Bebington","town":"Wirral","rgn":"North West","la":"Wirral","beds":103,"ty":["Nursing homes"],"sp":["Caring for adults over 65 yrs","Dementia","Physical disabilities","Sensory impairment"],"r":"Good","rs":"Good","re":"Good","rc":"Good","rr":"Good","rw":"Good","ins":"2023-02-21"},{"id":"1-10000813008","n":"Regency Care Centre","pc":"M45 7SG","lat":53.55848,"lng":-2.2953417,"addr":"140 Lilly Hill, Whitefield","town":"Bury","rgn":"North West","la":"Bury","beds":60,"ty":["Nursing homes"],"sp":["Caring for adults over 65 yrs","Dementia","Physical disabilities"],"r":"Good","rs":"Good","re":"Good","rc":"Good","rr":"Good","rw":"Good","ins":"2021-05-27"},{"id":"1-1000210669","n":"Kingswood House Nursing Home","pc":"TN37 6HR","lat":50.8574792,"lng":0.5619413,"addr":"21-23 Chapel Park Road","town":"St Leonards On Sea","rgn":"South East","la":"East Sussex","beds":22,"ty":["Nursing homes"],"sp":["Caring for adults under 65 yrs","Mental health conditions"],"r":"Requires improvement","rs":"Requires improvement","re":"Good","rc":"Good","rr":"Good","rw":"Requires improvement","ins":"2022-05-26"},{"id":"1-1000401911","n":"Little Haven","pc":"SE6 1HP","lat":51.4420936,"lng":0.0028787,"addr":"133 Wellmeadow Road","town":"London","rgn":"London","la":"Lewisham","beds":16,"ty":["Residential homes"],"sp":["Mental health conditions"],"r":"Good","rs":"Good","re":"Good","rc":"Good","rr":"Good","rw":"Good","ins":"2023-11-22"},{"id":"1-10005690253","n":"Rowan House","pc":"YO12 7QZ","lat":54.2890412,"lng":-0.4086206,"addr":"128 Columbus Ravine","town":"Scarborough","rgn":"Yorkshire & Humberside","la":"North Yorkshire","beds":9,"ty":["Residential homes"],"sp":["Caring for adults over 65 yrs","Caring for adults under 65 yrs","Caring for children","Learning disabilities","Mental health conditions"],"r":"Good","rs":"Good","re":"Good","rc":"Good","rr":"Good","rw":"Requires improvement","ins":"2022-05-27"},{"id":"1-1000587219","n":"Highlands Borders Care Home","pc":"EX1 2QE","lat":50.7214181,"lng":-3.5074532,"addr":"22 Salutary Mount, Heavitree","town":"Exeter","rgn":"South West","la":"Devon","beds":28,"ty":["Residential homes"],"sp":["Caring for adults over 65 yrs","Caring for adults under 65 yrs","Dementia","Learning disabilities","Physical disabilities"],"r":"Good","rs":"Good","re":"Good","rc":"Good","rr":"Good","rw":"Good","ins":"2020-11-27"},{"id":"1-10016894058","n":"Respite Breaks - Epwell rd.","pc":"B44 8DD","lat":52.532882,"lng":-1.8862333,"addr":"8 Epwell Road","town":"Birmingham","rgn":"West Midlands","la":"Birmingham","beds":2,"ty":["Residential homes"],"sp":["Caring for adults under 65 yrs","Learning disabilities","Sensory impairment"],"r":"Good","rs":"Good","re":"Good","rc":"Good","rr":"Good","rw":"Good","ins":"2022-03-23"},{"id":"1-10017508735","n":"Riverwell Beck Care Home","pc":"CA2 4SE","lat":54.8697002,"lng":-2.9314509,"addr":"Durdar Road, Blackwell","town":"Carlisle","rgn":"North West","la":"Cumberland","beds":60,"ty":["Nursing homes"],"sp":["Caring for adults over 65 yrs","Dementia"],"r":"Good","rs":"Good","re":"Good","rc":"Good","rr":"Good","rw":"Good","ins":"2022-03-24"},{"id":"1-10023785774","n":"Bromham House","pc":"MK43 8PT","lat":52.1446143,"lng":-0.5320036,"addr":"58 Stagsden Road, Bromham","town":"Bedford","rgn":"East","la":"Bedford","beds":4,"ty":["Residential homes"],"sp":["Caring for adults under 65 yrs","Learning disabilities","Mental health conditions"],"r":"Good","rs":"Good","re":"Good","rc":"Good","rr":"Good","rw":"Good","ins":"2022-10-11"},{"id":"1-1004508435","n":"Meadow Rose Nursing Home","pc":"B31 2TX","lat":52.4004168,"lng":-1.9875048,"addr":"96 The Roundabout","town":"Birmingham","rgn":"West Midlands","la":"Birmingham","beds":56,"ty":["Nursing homes"],"sp":["Caring for adults over 65 yrs","Caring for adults under 65 yrs","Dementia","Physical disabilities"],"r":"Requires improvement","rs":"Requires improvement","re":"Requires improvement","rc":"Good","rr":"Good","rw":"Requires improvement","ins":"2020-06-24"},{"id":"1-1004589685","n":"The Spinney Nursing Home","pc":"WN8 0PY","lat":53.5489989,"lng":-2.7259121,"addr":"16 College Road, Upholland","town":"Skelmersdale","rgn":"North West","la":"Lancashire","beds":35,"ty":["Nursing homes"],"sp":["Caring for adults over 65 yrs","Caring for adults under 65 yrs","Physical disabilities"],"r":"Requires improvement","rs":"Good","re":"Requires improvement","rc":"Good","rr":"Requires improvement","rw":"Good","ins":"2022-09-09"},{"id":"1-10046606585","n":"Woodview Care Home","pc":"ST5 8RQ","lat":53.0446989,"lng":-2.2371563,"addr":"Old Hall Drive","town":"Newcastle","rgn":"West Midlands","la":"Staffordshire","beds":60,"ty":["Nursing homes"],"sp":["Caring for adults over 65 yrs","Dementia","Physical disabilities","Sensory impairment","Substance misuse problems"],"r":"Good","rs":"Good","re":"Good","rc":"Good","rr":"Good","rw":"Good","ins":"2021-04-22"},{"id":"1-10048446564","n":"Thornbury Villa","pc":"PL3 4NE","lat":50.3907184,"lng":-4.1423979,"addr":"128 Peverell Park Road, Peverell","town":"Plymouth","rgn":"South West","la":"Plymouth","beds":14,"ty":["Residential homes"],"sp":["Caring for adults over 65 yrs"],"r":"Good","rs":"Good","re":"Good","rc":"Good","rr":"Good","rw":"Good","ins":"2022-08-30"},{"id":"1-10048660596","n":"Aston House","pc":"HR1 1TJ","lat":52.0495973,"lng":-2.6887364,"addr":"45 Hampton Park Road","town":"Hereford","rgn":"West Midlands","la":"Herefordshire, County of","beds":19,"ty":["Residential homes"],"sp":["Caring for adults over 65 yrs","Caring for adults under 65 yrs","Learning disabilities","Mental health conditions"],"r":"Requires improvement","rs":"Requires improvement","re":"Requires improvement","rc":"Good","rr":"Good","rw":"Requires improvement","ins":"2021-10-12"},{"id":"1-10052865046","n":"Standon House","pc":"B79 8AG","lat":52.6422242,"lng":-1.6921579,"addr":"12 Ashby Road","town":"Tamworth","rgn":"West Midlands","la":"Staffordshire","beds":31,"ty":["Residential homes"],"sp":["Caring for adults over 65 yrs","Dementia"],"r":"Requires improvement","rs":"Requires improvement","re":"Requires improvement","rc":"Good","rr":"Good","rw":"Requires improvement","ins":"2022-09-13"},{"id":"1-10064549975","n":"Connaught House","pc":"B90 4LA","lat":52.39434,"lng":-1.816371,"addr":"The Green, Stratford Road","town":"Solihull","rgn":"West Midlands","la":"Solihull","beds":86,"ty":["Nursing homes"],"sp":["Dementia","Mental health conditions","Physical disabilities","Sensory impairment"],"r":"Good","rs":"Good","re":"Good","rc":"Good","rr":"Good","rw":"Good","ins":"2021-11-10"},{"id":"1-10065650875","n":"The Rock Care Home","pc":"TQ11 0BU","lat":50.481724,"lng":-3.773032,"addr":"1 Station Road","town":"Buckfastleigh","rgn":"South West","la":"Devon","beds":14,"ty":["Residential homes","Homecare agencies"],"sp":["Caring for adults over 65 yrs","Dementia","Mental health conditions","Physical disabilities","Sensory impairment"],"r":"Good","rs":"Good","re":"Good","rc":"Good","rr":"Good","rw":"Good","ins":"2022-05-23"},{"id":"1-10066275025","n":"Homelands","pc":"PO21 2YE","lat":50.7831534,"lng":-0.6894034,"addr":"21-23 Richmond Avenue","town":"Bognor Regis","rgn":"South East","la":"West Sussex","beds":20,"ty":["Residential homes"],"sp":["Caring for adults over 65 yrs","Caring for adults under 65 yrs","Dementia","Mental health conditions","Substance misuse problems"],"r":"Good","rs":"Good","re":"Good","rc":"Good","rr":"Good","rw":"Good","ins":"2022-06-16"},{"id":"1-10079446273","n":"Lady of the Vale Care Home","pc":"WA14 3HA","lat":53.3710498,"lng":-2.3525683,"addr":"Grange Road, Bowdon","town":"Altrincham","rgn":"North West","la":"Trafford","beds":39,"ty":["Nursing homes"],"sp":["Caring for adults over 65 yrs","Dementia"],"r":"Good","rs":"Good","re":"Good","rc":"Good","rr":"Requires improvement","rw":"Good","ins":"2022-04-12"},{"id":"1-10079588350","n":"Cedar Court Residential and Nursing Home","pc":"SR7 8BT","lat":54.8364722,"lng":-1.357852,"addr":"Portland Avenue","town":"Seaham","rgn":"North East","la":"County Durham","beds":68,"ty":["Nursing homes","Rehabilitation (illness/injury)"],"sp":["Caring for adults over 65 yrs","Caring for adults under 65 yrs","Dementia","Physical disabilities"],"r":"Good","rs":"Good","re":"Good","rc":"No published rating","rr":"Good","rw":"Good","ins":"2021-01-21"},{"id":"1-10080687826","n":"Ramsey Step Down and Care Centre","pc":"CO12 5EP","lat":51.93127,"lng":1.228314,"addr":"Ramsey Road","town":"Harwich","rgn":"East","la":"Essex","beds":37,"ty":["Nursing homes"],"sp":["Caring for adults over 65 yrs","Caring for adults under 65 yrs"],"r":"Requires improvement","rs":"Requires improvement","re":"Requires improvement","rc":"Good","rr":"Good","rw":"Requires improvement","ins":"2022-08-25"},{"id":"1-10205172817","n":"Nottingham Brain Injury Rehabilitation and Neurological Care Centre","pc":"NG15 7RR","lat":53.0308161,"lng":-1.1948885,"addr":"Hankin Street, Hucknall","town":"Nottingham","rgn":"East Midlands","la":"Nottinghamshire","beds":71,"ty":["Nursing homes","Rehabilitation (illness/injury)"],"sp":["Caring for adults over 65 yrs","Caring for adults under 65 yrs","Physical disabilities","Sensory impairment"],"r":null,"rs":null,"re":null,"rc":null,"rr":null,"rw":null,"ins":"2022-05-20"},{"id":"1-10205172843","n":"Conifer Lodge","pc":"PE13 1LL","lat":52.6573303,"lng":0.1451282,"addr":"134 North Brink","town":"Wisbech","rgn":"East","la":"Cambridgeshire","beds":13,"ty":["Nursing homes"],"sp":["Caring for adults over 65 yrs","Caring for adults under 65 yrs","Learning disabilities","Mental health conditions"],"r":"Outstanding","rs":"Good","re":"Good","rc":"Good","rr":"Outstanding","rw":"Outstanding","ins":"2022-07-28"},{"id":"1-10210427807","n":"Abbots Wood Manor","pc":"BN27 3AL","lat":50.872321,"lng":0.25092,"addr":"116, London Road","town":"Hailsham","rgn":"South East","la":"East Sussex","beds":60,"ty":["Nursing homes"],"sp":["Caring for adults over 65 yrs","Dementia"],"r":"Good","rs":"Good","re":"Good","rc":"Good","rr":"Good","rw":"Good","ins":"2022-01-26"},{"id":"1-10212930207","n":"Belgravia Care Home","pc":"FY1 2LB","lat":53.831995,"lng":-3.0553115,"addr":"406 North Promenade","town":"Blackpool","rgn":"North West","la":"Blackpool","beds":25,"ty":["Residential homes"],"sp":["Caring for adults over 65 yrs","Caring for adults under 65 yrs","Dementia","Mental health conditions","Physical disabilities"],"r":null,"rs":null,"re":null,"rc":null,"rr":null,"rw":null,"ins":"2022-06-09"},{"id":"1-10216615141","n":"Avocet House Care Home","pc":"PE21 7NT","lat":52.955637,"lng":-0.034904,"addr":"Parkes Lane","town":"Boston","rgn":"East Midlands","la":"Lincolnshire","beds":66,"ty":["Residential homes"],"sp":["Caring for adults over 65 yrs","Caring for adults under 65 yrs","Dementia","Learning disabilities","Mental health conditions","Physical disabilities","Sensory impairment"],"r":"Good","rs":"Good","re":"Good","rc":"Good","rr":"Good","rw":"Good","ins":"2022-10-05"},{"id":"1-10224972832","n":"Kinross Residential Care Home","pc":"PO6 1EE","lat":50.8468433,"lng":-1.0442762,"addr":"201 Havant Road, Drayton","town":"Portsmouth","rgn":"South East","la":"Portsmouth","beds":29,"ty":["Residential homes"],"sp":["Caring for adults over 65 yrs","Caring for adults under 65 yrs","Dementia"],"r":"Good","rs":"Good","re":"Good","rc":"Good","rr":"Good","rw":"Good","ins":"2022-12-07"},{"id":"1-10232604320","n":"Signature at Coombe Hill Manor","pc":"KT2 7EQ","lat":51.41553,"lng":-0.252992,"addr":"190-196, Coombe Lane West","town":"Kingston Upon Thames","rgn":"London","la":"Kingston upon Thames","beds":104,"ty":["Nursing homes"],"sp":["Caring for adults over 65 yrs","Caring for adults under 65 yrs","Dementia"],"r":"Good","rs":"Good","re":"Good","rc":"Good","rr":"Outstanding","rw":"Good","ins":"2022-07-21"},{"id":"1-10233259479","n":"Lapwing Lodge","pc":"NR31 8SF","lat":52.5841587,"lng":1.7081957,"addr":"12 Lapwing Close, Bradwell","town":"Great Yarmouth","rgn":"East","la":"Norfolk","beds":3,"ty":["Residential homes"],"sp":["Caring for adults over 65 yrs","Caring for adults under 65 yrs","Learning disabilities"],"r":"Requires improvement","rs":"Requires improvement","re":"Requires improvement","rc":"Requires improvement","rr":"Requires improvement","rw":"Requires improvement","ins":"2022-07-25"},{"id":"1-10239195055","n":"Crossfields Lodge","pc":"CO9 1UY","lat":51.9375894,"lng":0.6408144,"addr":"18 Crossfields","town":"Halstead","rgn":"East","la":"Essex","beds":2,"ty":["Residential homes"],"sp":["Caring for adults over 65 yrs","Caring for adults under 65 yrs","Learning disabilities"],"r":"Requires improvement","rs":"Requires improvement","re":"Requires improvement","rc":"Good","rr":"Good","rw":"Requires improvement","ins":"2022-11-24"},{"id":"1-10246030306","n":"Southmead Rest Home","pc":"BH18 8ES","lat":50.7498848,"lng":-1.998085,"addr":"159 York Road","town":"Broadstone","rgn":"South West","la":"Bournemouth, Christchurch and Poole","beds":16,"ty":["Residential homes"],"sp":["Caring for adults over 65 yrs","Dementia"],"r":"Good","rs":"Good","re":"Good","rc":"Good","rr":"Good","rw":"Good","ins":"2022-09-20"},{"id":"1-10246862368","n":"Spencer House","pc":"CT7 9EZ","lat":51.3804285,"lng":1.3043203,"addr":"Spencer Road","town":"Birchington","rgn":"South East","la":"Kent","beds":25,"ty":["Residential homes"],"sp":["Caring for adults over 65 yrs","Dementia","Physical disabilities"],"r":"Requires improvement","rs":"Requires improvement","re":"Requires improvement","rc":"Good","rr":"Good","rw":"Requires improvement","ins":"2022-07-08"},{"id":"1-10250002572","n":"Maple Cottage","pc":"GU23 7EN","lat":51.294337,"lng":-0.540691,"addr":"208 Send Road, Send","town":"Woking","rgn":"South East","la":"Surrey","beds":1,"ty":["Residential homes"],"sp":["Caring for adults over 65 yrs","Learning disabilities"],"r":"Outstanding","rs":"Good","re":"Good","rc":"Good","rr":"Outstanding","rw":"Outstanding","ins":"2023-01-19"},{"id":"1-10251008990","n":"Bethany Care Service","pc":"RG26 3TH","lat":51.3526113,"lng":-1.1275037,"addr":"17a Pamber Heath Road, Pamber Heath","town":"Tadley","rgn":"South East","la":"Hampshire","beds":37,"ty":["Residential homes","Homecare agencies"],"sp":["Caring for adults over 65 yrs","Dementia","Physical disabilities"],"r":"Outstanding","rs":"Good","re":"Good","rc":"Outstanding","rr":"Good","rw":"Outstanding","ins":null},{"id":"1-10255935121","n":"WhiteHorse Care - Brownhills","pc":"WS8 7PE","lat":52.6596317,"lng":-1.9357865,"addr":"59 Whitehorse Road, Brownhills","town":"Walsall","rgn":"West Midlands","la":"Walsall","beds":8,"ty":["Residential homes"],"sp":["Caring for adults under 65 yrs","Learning disabilities","Mental health conditions","Physical disabilities"],"r":"Requires improvement","rs":"Good","re":"Good","rc":"Good","rr":"Requires improvement","rw":"Requires improvement","ins":"2023-02-14"},{"id":"1-10257022305","n":"Baxendale Care Home","pc":"N20 0EH","lat":51.6295205,"lng":-0.1763784,"addr":"Woodside House, Baxendale","town":"London","rgn":"London","la":"Barnet","beds":45,"ty":["Residential homes"],"sp":["Caring for adults over 65 yrs","Dementia"],"r":"Good","rs":"Good","re":"Good","rc":"Good","rr":"Good","rw":"Good","ins":"2022-04-13"},{"id":"1-1026224214","n":"Knightsbridge Lodge","pc":"GL51 9TA","lat":51.9383148,"lng":-2.1551401,"addr":"Knightsbridge Green, Knightsbridge","town":"Cheltenham","rgn":"South West","la":"Gloucestershire","beds":22,"ty":["Residential homes"],"sp":["Caring for adults over 65 yrs"],"r":"Good","rs":"Good","re":"Good","rc":"Good","rr":"Good","rw":"Good","ins":"2018-01-03"},{"id":"1-10279987808","n":"Laureate Court","pc":"S60 2NX","lat":53.4268073,"lng":-1.3459048,"addr":"Wellgate","town":"Rotherham","rgn":"Yorkshire & Humberside","la":"Rotherham","beds":84,"ty":["Nursing homes"],"sp":["Caring for adults over 65 yrs","Caring for adults under 65 yrs","Dementia"],"r":"Good","rs":"Good","re":"Good","rc":"Good","rr":"Good","rw":"Requires improvement","ins":"2022-01-19"},{"id":"1-1028736331","n":"Wiltshire Heights Care Home","pc":"BA15 1FD","lat":51.3533231,"lng":-2.251591,"addr":"Cottle Avenue, Off Berryfield Road","town":"Bradford On Avon","rgn":"South West","la":"Wiltshire","beds":63,"ty":["Nursing homes"],"sp":["Caring for adults over 65 yrs","Caring for adults under 65 yrs","Dementia"],"r":"Good","rs":"Requires improvement","re":"Good","rc":"Good","rr":"Good","rw":"Good","ins":"2023-09-27"},{"id":"1-10290874191","n":"Hilldales Residential Care Home","pc":"EX34 9JS","lat":51.2069318,"lng":-4.1210048,"addr":"10-13 Oxford Park","town":"Ilfracombe","rgn":"South West","la":"Devon","beds":56,"ty":["Residential homes"],"sp":["Caring for adults over 65 yrs","Caring for adults under 65 yrs","Dementia","Mental health conditions","Physical disabilities","Sensory impairment","Substance misuse problems"],"r":null,"rs":null,"re":null,"rc":null,"rr":null,"rw":null,"ins":"2022-08-19"},{"id":"1-10291602375","n":"Ferrars Hall Care Home","pc":"PE29 3AA","lat":52.3326219,"lng":-0.1900167,"addr":"14 Ferrars Road","town":"Huntingdon","rgn":"East","la":"Cambridgeshire","beds":66,"ty":["Residential homes"],"sp":["Caring for adults over 65 yrs","Dementia"],"r":"Good","rs":"Good","re":"Good","rc":"Good","rr":"Good","rw":"Good","ins":"2022-09-21"},{"id":"1-10292353574","n":"Lakeview Lodge Care Home","pc":"MK3 5QU","lat":51.9759114,"lng":-0.7320408,"addr":"2 Elba Gate, Newton Leys, Bletchley","town":"Milton Keynes","rgn":"South East","la":"Milton Keynes","beds":66,"ty":["Residential homes"],"sp":["Caring for adults over 65 yrs","Dementia"],"r":"Good","rs":"Good","re":"Good","rc":"Good","rr":"Good","rw":"Good","ins":"2022-09-12"},{"id":"1-1029276107","n":"Clearbury","pc":"EX16 7JU","lat":50.9420572,"lng":-3.3160723,"addr":"Burlescombe","town":"Tiverton","rgn":"South West","la":"Devon","beds":5,"ty":["Residential homes"],"sp":["Caring for adults under 65 yrs","Caring for children","Learning disabilities","Sensory impairment"],"r":"Good","rs":"Good","re":"Good","rc":"Good","rr":"Good","rw":"Good","ins":"2017-08-24"},{"id":"1-1029431911","n":"Ashley House","pc":"CV31 1TQ","lat":52.2780029,"lng":-1.4980742,"addr":"1 School Lane, Radford Semele","town":"Leamington Spa","rgn":"West Midlands","la":"Warwickshire","beds":16,"ty":["Nursing homes"],"sp":["Caring for adults under 65 yrs","Caring for people whose rights are restricted under the Mental Health Act","Eating disorders","Learning disabilities","Mental health conditions","Substance misuse problems"],"r":"Good","rs":"Good","re":"Good","rc":"Good","rr":"Good","rw":"Good","ins":"2022-02-22"},{"id":"1-106909122","n":"Tower House","pc":"RG9 3JN","lat":51.5088821,"lng":-0.8920845,"addr":"Tower House, Reading Road, Shiplake","town":"Henley On Thames","rgn":"South East","la":"Oxfordshire","beds":12,"ty":["Residential homes"],"sp":["Caring for adults over 65 yrs"],"r":"Good","rs":"Good","re":"Good","rc":"Good","rr":"Good","rw":"Good","ins":"2023-06-26"},{"id":"1-106925184","n":"Foxley Lodge Residential Care Home","pc":"CR8 2HB","lat":51.3348843,"lng":-0.1154983,"addr":"24-26 Foxley Hill Road","town":"Purley","rgn":"London","la":"Croydon","beds":22,"ty":["Residential homes"],"sp":["Caring for adults over 65 yrs","Caring for adults under 65 yrs","Dementia"],"r":"Good","rs":"Good","re":"Good","rc":"Good","rr":"Good","rw":"Good","ins":"2021-10-14"},{"id":"1-106926337","n":"Abbey Chase Nursing Home","pc":"KT16 8JW","lat":51.3931162,"lng":-0.4908895,"addr":"Bridge Road","town":"Chertsey","rgn":"South East","la":"Surrey","beds":64,"ty":["Nursing homes"],"sp":["Caring for adults over 65 yrs","Caring for adults under 65 yrs","Sensory impairment"],"r":"Good","rs":"Good","re":"Good","rc":"Good","rr":"Requires improvement","rw":"Good","ins":"2022-08-18"},{"id":"1-106948093","n":"Norwyn House","pc":"EX13 5ST","lat":50.7629372,"lng":-2.9694087,"addr":"Charmouth Road, Raymonds Hill","town":"Axminster","rgn":"South West","la":"Devon","beds":5,"ty":["Residential homes"],"sp":["Learning disabilities"],"r":"Good","rs":"Good","re":"Good","rc":"Good","rr":"Good","rw":"Good","ins":"2019-03-12"},{"id":"1-106956345","n":"Harbour Rise Rest Home","pc":"TQ4 6DN","lat":50.4294883,"lng":-3.5586795,"addr":"18 Roundham Road","town":"Paignton","rgn":"South West","la":"Torbay","beds":44,"ty":["Residential homes"],"sp":["Caring for adults over 65 yrs","Dementia","Physical disabilities"],"r":null,"rs":null,"re":null,"rc":null,"rr":null,"rw":null,"ins":"2020-10-23"},{"id":"1-1070253842","n":"Gedling Village Care Home","pc":"NG4 4HA","lat":52.9798209,"lng":-1.0869856,"addr":"73 Arnold Lane, Gedling","town":"Nottingham","rgn":"East Midlands","la":"Nottinghamshire","beds":60,"ty":["Residential homes"],"sp":["Caring for adults over 65 yrs","Caring for adults under 65 yrs","Dementia","Physical disabilities"],"r":"Requires improvement","rs":"Requires improvement","re":"Requires improvement","rc":"Good","rr":"Good","rw":"Requires improvement","ins":"2021-05-11"},{"id":"1-1070281691","n":"1 Stratton Road","pc":"SN9 5DY","lat":51.3389047,"lng":-1.7694533,"addr":"1 Stratton Road","town":"Pewsey","rgn":"South West","la":"Wiltshire","beds":3,"ty":["Residential homes"],"sp":["Caring for adults under 65 yrs","Learning disabilities","Mental health conditions"],"r":"Good","rs":"Good","re":"Good","rc":"Good","rr":"Good","rw":"Good","ins":"2022-02-22"},{"id":"1-107067388","n":"Abbeyfield Residential Care Home - The Grove","pc":"NE3 1NH","lat":55.0032124,"lng":-1.612487,"addr":"40A The Grove, Gosforth","town":"Newcastle Upon Tyne","rgn":"North East","la":"Newcastle upon Tyne","beds":32,"ty":["Residential homes"],"sp":["Caring for adults over 65 yrs"],"r":null,"rs":null,"re":null,"rc":null,"rr":null,"rw":null,"ins":"2022-03-30"},{"id":"1-107067403","n":"Abbeyfield Residential Care Home - Castle Farm","pc":"NE3 1RF","lat":55.0013293,"lng":-1.6010389,"addr":"Castle Farm Road","town":"Newcastle Upon Tyne","rgn":"North East","la":"Newcastle upon Tyne","beds":24,"ty":["Residential homes"],"sp":["Caring for adults over 65 yrs"],"r":"Good","rs":"Good","re":"Good","rc":"Good","rr":"Good","rw":"Good","ins":"2022-02-16"},{"id":"1-107071905","n":"St Ann's Lodge 2","pc":"KT3 5LL","lat":51.3877361,"lng":-0.2543528,"addr":"3 Lyndhurst Drive","town":"New Malden","rgn":"London","la":"Kingston upon Thames","beds":6,"ty":["Residential homes","Homecare agencies","Supported living"],"sp":["Caring for adults over 65 yrs","Caring for adults under 65 yrs","Dementia","Learning disabilities","Mental health conditions","Physical disabilities","Sensory impairment"],"r":null,"rs":null,"re":null,"rc":null,"rr":null,"rw":null,"ins":"2018-08-15"},{"id":"1-107079545","n":"H M T Care - 48 Albany Drive","pc":"CT6 8PX","lat":51.3680735,"lng":1.1144855,"addr":"48 Albany Drive","town":"Herne Bay","rgn":"South East","la":"Kent","beds":7,"ty":["Residential homes"],"sp":["Caring for adults over 65 yrs","Caring for adults under 65 yrs","Physical disabilities"],"r":"Good","rs":"Good","re":"Good","rc":"Good","rr":"Good","rw":"Good","ins":"2018-02-13"},{"id":"1-107082503","n":"Windsor Court Residential Home","pc":"TS18 4DZ","lat":54.5598597,"lng":-1.3290331,"addr":"44-50 Windsor Road","town":"Stockton On Tees","rgn":"North East","la":"Stockton-on-Tees","beds":32,"ty":["Residential homes"],"sp":["Caring for adults over 65 yrs","Dementia","Physical disabilities"],"r":"Good","rs":"Good","re":"Good","rc":"Good","rr":"Good","rw":"Good","ins":"2021-08-09"},{"id":"1-107087876","n":"Bradbury House","pc":"HP9 2JW","lat":51.6004028,"lng":-0.6383373,"addr":"Abbeyfield Beaconsfield Society, Windsor End","town":"Beaconsfield","rgn":"South East","la":"Buckinghamshire","beds":42,"ty":["Residential homes"],"sp":["Caring for adults over 65 yrs","Sensory impairment"],"r":"Good","rs":"Good","re":"Good","rc":"Good","rr":"Good","rw":"Good","ins":"2022-02-02"},{"id":"1-107095355","n":"Newton Care Homes Limited","pc":"HA1 4SZ","lat":51.5889618,"lng":-0.3436599,"addr":"111 Harrow View","town":"Harrow","rgn":"London","la":"Harrow","beds":4,"ty":["Residential homes","Supported living"],"sp":["Learning disabilities"],"r":"Good","rs":"Good","re":"Good","rc":"Good","rr":"Good","rw":"Good","ins":"2018-10-09"},{"id":"1-10710757027","n":"Greenfield Care Home","pc":"CR4 4BF","lat":51.3986595,"lng":-0.1713379,"addr":"387 London Road","town":"Mitcham","rgn":"London","la":"Merton","beds":9,"ty":["Residential homes"],"sp":["Caring for adults over 65 yrs","Caring for adults under 65 yrs","Learning disabilities","Physical disabilities"],"r":"Good","rs":"Good","re":"Good","rc":"Good","rr":"Good","rw":"Requires improvement","ins":"2022-07-29"},{"id":"1-107107715","n":"Carnalea Residential Home","pc":"ME13 8TA","lat":51.310143,"lng":0.8799831,"addr":"5-9 London Road","town":"Faversham","rgn":"South East","la":"Kent","beds":50,"ty":["Residential homes"],"sp":["Caring for adults over 65 yrs","Caring for adults under 65 yrs","Dementia"],"r":null,"rs":null,"re":null,"rc":null,"rr":null,"rw":null,"ins":"2022-11-18"},{"id":"1-107117300","n":"Banbury Heights Nursing Home","pc":"OX16 5HT","lat":52.0562594,"lng":-1.3387378,"addr":"11 Old Parr Road","town":"Banbury","rgn":"South East","la":"Oxfordshire","beds":59,"ty":["Nursing homes","Rehabilitation (illness/injury)"],"sp":["Caring for adults over 65 yrs","Dementia","Learning disabilities","Mental health conditions","Physical disabilities","Sensory impairment"],"r":null,"rs":null,"re":null,"rc":null,"rr":null,"rw":null,"ins":"2023-05-02"},{"id":"1-107126433","n":"Crossways Healthcare Limited","pc":"RH16 2AA","lat":51.0130554,"lng":-0.0943003,"addr":"2 Sunte Avenue, Lindfield","town":"Haywards Heath","rgn":"South East","la":"West Sussex","beds":25,"ty":["Residential homes"],"sp":["Caring for adults over 65 yrs"],"r":"Good","rs":"Good","re":"Good","rc":"Good","rr":"Good","rw":"Good","ins":"2019-07-18"},{"id":"1-107129620","n":"Aurem Care (The Red House)","pc":"KT21 2NN","lat":51.3080826,"lng":-0.3085251,"addr":"43 Skinners Lane","town":"Ashtead","rgn":"South East","la":"Surrey","beds":26,"ty":["Nursing homes"],"sp":["Caring for adults over 65 yrs","Caring for adults under 65 yrs","Dementia"],"r":"Outstanding","rs":"Good","re":"Good","rc":"Outstanding","rr":"Outstanding","rw":"Outstanding","ins":"2022-02-03"},{"id":"1-107135403","n":"Rutland House Care Home","pc":"SM1 3DQ","lat":51.3733734,"lng":-0.1858027,"addr":"67 All Saints Road","town":"Sutton","rgn":"London","la":"Sutton","beds":20,"ty":["Residential homes"],"sp":["Caring for adults over 65 yrs","Dementia"],"r":null,"rs":null,"re":null,"rc":null,"rr":null,"rw":null,"ins":"2023-06-28"},{"id":"1-107144677","n":"Winash Rest Home","pc":"BS21 7RP","lat":51.4396535,"lng":-2.8569345,"addr":"9 Albert Road","town":"Clevedon","rgn":"South West","la":"North Somerset","beds":32,"ty":["Residential homes"],"sp":["Caring for adults over 65 yrs","Caring for adults under 65 yrs"],"r":null,"rs":null,"re":null,"rc":null,"rr":null,"rw":null,"ins":"2018-08-20"},{"id":"1-107153495","n":"Derriford House","pc":"GU51 3AW","lat":51.2853012,"lng":-0.8354561,"addr":"Pinewood Hill","town":"Fleet","rgn":"South East","la":"Hampshire","beds":34,"ty":["Residential homes"],"sp":["Caring for adults over 65 yrs"],"r":"Good","rs":"Good","re":"Good","rc":"Good","rr":"Good","rw":"Good","ins":"2023-04-11"},{"id":"1-107163108","n":"Beach Crest Residential Home","pc":"BH25 7DX","lat":50.7357818,"lng":-1.6570601,"addr":"40 Marine Drive East, Barton-on-Sea","town":"New Milton","rgn":"South East","la":"Hampshire","beds":11,"ty":["Residential homes"],"sp":["Caring for adults over 65 yrs","Dementia","Mental health conditions"],"r":"Good","rs":"Good","re":"Good","rc":"Good","rr":"Good","rw":"Good","ins":"2020-02-10"},{"id":"1-10717354334","n":"Fosse Bank House","pc":"BB2 3UB","lat":53.726033,"lng":-2.466413,"addr":"1-6 Fosse Bank Court, Fosse Close","town":"Blackburn","rgn":"North West","la":"Blackburn with Darwen","beds":8,"ty":["Residential homes"],"sp":["Caring for adults under 65 yrs","Learning disabilities","Mental health conditions","Physical disabilities","Sensory impairment"],"r":"Good","rs":"Good","re":"Good","rc":"Good","rr":"Outstanding","rw":"Good","ins":null},{"id":"1-10723430806","n":"Eagle House Residential Care Home","pc":"LN6 9DL","lat":53.195753,"lng":-0.686605,"addr":"Lincoln Road, Eagle","town":"Lincoln","rgn":"East Midlands","la":"Lincolnshire","beds":40,"ty":["Residential homes"],"sp":["Caring for adults over 65 yrs","Caring for adults under 65 yrs","Dementia","Mental health conditions","Physical disabilities"],"r":null,"rs":null,"re":null,"rc":null,"rr":null,"rw":null,"ins":null},{"id":"1-10723635414","n":"Hawkinge House Proactive Assessment Unit","pc":"CT18 7SS","lat":51.1105458,"lng":1.1585726,"addr":"1 Hurricane Way, Hawkinge","town":"Folkestone","rgn":"South East","la":"Kent","beds":62,"ty":["Nursing homes"],"sp":["Caring for adults over 65 yrs","Caring for adults under 65 yrs","Dementia","Physical disabilities","Sensory impairment"],"r":"Good","rs":"Good","re":"Good","rc":"Good","rr":"Good","rw":"Good","ins":"2022-07-12"},{"id":"1-107248775","n":"Greta Cottage","pc":"TS12 1LS","lat":54.5791915,"lng":-0.9738536,"addr":"Greta Street","town":"Saltburn By The Sea","rgn":"North East","la":"Redcar and Cleveland","beds":29,"ty":["Residential homes"],"sp":["Caring for adults over 65 yrs","Dementia"],"r":"Good","rs":"Good","re":"Good","rc":"Good","rr":"Good","rw":"Good","ins":"2020-11-10"},{"id":"1-107249188","n":"Rosewood Lodge & Brook House","pc":"TA6 3LH","lat":51.1268222,"lng":-3.0033808,"addr":"11-13 Friarn Street, Rosewood","town":"Bridgwater","rgn":"South West","la":"Somerset","beds":20,"ty":["Residential homes"],"sp":["Caring for adults under 65 yrs","Learning disabilities","Mental health conditions"],"r":null,"rs":null,"re":null,"rc":null,"rr":null,"rw":null,"ins":"2021-05-19"},{"id":"1-107256697","n":"St Heliers Care Home","pc":"CT20 2EF","lat":51.0759861,"lng":1.1696709,"addr":"25-26 Clifton Gardens","town":"Folkestone","rgn":"South East","la":"Kent","beds":30,"ty":["Residential homes"],"sp":["Caring for adults over 65 yrs","Caring for adults under 65 yrs","Dementia"],"r":"Good","rs":"Good","re":"Good","rc":"Good","rr":"Good","rw":"Requires improvement","ins":"2022-06-09"},{"id":"1-10725852579","n":"Snowdrop Place Care Home","pc":"SO30 2ZS","lat":50.9189543,"lng":-1.2893165,"addr":"Snowdrop Place, Pavilion Road, Hedge End","town":"Southampton","rgn":"South East","la":"Hampshire","beds":68,"ty":["Residential homes"],"sp":["Caring for adults over 65 yrs","Caring for adults under 65 yrs","Dementia"],"r":"Requires improvement","rs":"Requires improvement","re":"Requires improvement","rc":"Good","rr":"Good","rw":"Requires improvement","ins":"2023-06-16"},{"id":"1-1072625331","n":"Lorne House","pc":"DY10 1SY","lat":52.3855313,"lng":-2.2359613,"addr":"14 Lorne Street","town":"Kidderminster","rgn":"West Midlands","la":"Worcestershire","beds":9,"ty":["Residential homes"],"sp":["Caring for adults under 65 yrs","Learning disabilities","Mental health conditions","Physical disabilities"],"r":"Good","rs":"Good","re":"Good","rc":"Good","rr":"Good","rw":"Good","ins":"2019-08-06"},{"id":"1-107263645","n":"The Paddocks","pc":"IP21 5TR","lat":52.3737025,"lng":1.2917799,"addr":"Church Road, Weybread","town":"Diss","rgn":"East","la":"Suffolk","beds":6,"ty":["Residential homes"],"sp":["Learning disabilities"],"r":null,"rs":null,"re":null,"rc":null,"rr":null,"rw":null,"ins":"2018-11-21"},{"id":"1-107269593","n":"Acorn Lodge Care Centre","pc":"E5 0QP","lat":51.554952,"lng":-0.05258,"addr":"15 Atherden Road, Hackney","town":"London","rgn":"London","la":"Hackney","beds":101,"ty":["Nursing homes"],"sp":["Caring for adults over 65 yrs","Dementia","Mental health conditions","Physical disabilities"],"r":"Good","rs":"Good","re":"Good","rc":"Good","rr":"Good","rw":"Good","ins":"2023-11-27"},{"id":"1-107271282","n":"Burn Brae Lodge","pc":"NE45 5RU","lat":54.95711,"lng":-2.011706,"addr":"Prospect Hill","town":"Corbridge","rgn":"North East","la":"Northumberland","beds":31,"ty":["Residential homes"],"sp":["Caring for adults over 65 yrs","Dementia"],"r":"Good","rs":"Good","re":"Good","rc":"Good","rr":"Good","rw":"Good","ins":"2021-01-20"},{"id":"1-107276328","n":"Threen House Nursing Home","pc":"W5 5BH","lat":51.5110198,"lng":-0.3123916,"addr":"29 Mattock Lane, Ealing","town":"London","rgn":"London","la":"Ealing","beds":26,"ty":["Nursing homes"],"sp":["Caring for adults over 65 yrs","Physical disabilities"],"r":"Requires improvement","rs":"Requires improvement","re":"Good","rc":"Good","rr":"Good","rw":"Requires improvement","ins":"2022-02-28"},{"id":"1-1072844601","n":"Osborne House","pc":"YO8 4AU","lat":53.7798804,"lng":-1.0742915,"addr":"Union Lane","town":"Selby","rgn":"Yorkshire & Humberside","la":"North Yorkshire","beds":74,"ty":["Nursing homes"],"sp":["Caring for adults over 65 yrs","Caring for adults under 65 yrs","Dementia","Mental health conditions","Physical disabilities"],"r":"Good","rs":"Good","re":"Good","rc":"Good","rr":"Good","rw":"Good","ins":"2022-08-11"},{"id":"1-107285339","n":"Heathfield (Horsham) Limited","pc":"RH12 2DX","lat":51.0714536,"lng":-0.3259788,"addr":"88 Hurst Road","town":"Horsham","rgn":"South East","la":"West Sussex","beds":36,"ty":["Residential homes"],"sp":["Caring for adults over 65 yrs","Physical disabilities","Sensory impairment"],"r":"Good","rs":"Good","re":"Good","rc":"Good","rr":"Good","rw":"Good","ins":"2023-01-31"},{"id":"1-107289210","n":"Devonshire Dementia Care Home","pc":"KT3 6AG","lat":51.3935355,"lng":-0.2535897,"addr":"The Devonshire Care Home, 213 Malden Road","town":"New Malden","rgn":"London","la":"Kingston upon Thames","beds":34,"ty":["Residential homes"],"sp":["Caring for adults over 65 yrs","Dementia"],"r":"Good","rs":"Good","re":"Good","rc":"Good","rr":"Good","rw":"Good","ins":"2020-01-08"},{"id":"1-107289799","n":"Chandos Lodge Nursing Home","pc":"SL2 3ED","lat":51.5475359,"lng":-0.6180679,"addr":"Blackpond Lane, Farnham Common","town":"Slough","rgn":"South East","la":"Buckinghamshire","beds":31,"ty":["Nursing homes"],"sp":["Caring for adults over 65 yrs"],"r":"Requires improvement","rs":"Requires improvement","re":"Good","rc":"Good","rr":"Requires improvement","rw":"Requires improvement","ins":"2022-08-12"},{"id":"1-107291188","n":"Pinehurst Rest Home","pc":"RH5 6BY","lat":51.2579049,"lng":-0.318021,"addr":"Zig-Zag Road, Mickleham","town":"Dorking","rgn":"South East","la":"Surrey","beds":19,"ty":["Residential homes"],"sp":["Caring for adults over 65 yrs","Dementia"],"r":"Good","rs":"Good","re":"Good","rc":"Good","rr":"Good","rw":"Good","ins":"2021-05-18"},{"id":"1-10729245621","n":"Roper House","pc":"CT2 8BZ","lat":51.2840632,"lng":1.0709642,"addr":"St. Dunstans Street","town":"Canterbury","rgn":"South East","la":"Kent","beds":24,"ty":["Residential homes"],"sp":["Caring for adults over 65 yrs","Caring for adults under 65 yrs","Dementia","Learning disabilities","Mental health conditions","Physical disabilities","Sensory impairment"],"r":"Good","rs":"Good","re":"Good","rc":"Good","rr":"Good","rw":"Good","ins":"2023-01-12"},{"id":"1-10729245692","n":"Harding House","pc":"SW18 2QX","lat":51.4583338,"lng":-0.1809633,"addr":"70 North Side Wandsworth Common, Clapham","town":"London","rgn":"London","la":"Wandsworth","beds":10,"ty":["Residential homes"],"sp":["Caring for adults under 65 yrs","Learning disabilities","Mental health conditions","Sensory impairment"],"r":"Good","rs":"Good","re":"Good","rc":"Good","rr":"Good","rw":"Good","ins":"2022-11-01"},{"id":"1-10729245746","n":"Huguenot Place","pc":"SW18 2EN","lat":51.4577543,"lng":-0.183323,"addr":"6 Huguenot Place, Wandsworth","town":"London","rgn":"London","la":"Wandsworth","beds":8,"ty":["Residential homes"],"sp":["Caring for adults under 65 yrs","Learning disabilities","Mental health conditions","Physical disabilities","Sensory impairment"],"r":null,"rs":null,"re":null,"rc":null,"rr":null,"rw":null,"ins":null},{"id":"1-10729526051","n":"Knells Country House","pc":"CA6 4JG","lat":54.9364082,"lng":-2.9163249,"addr":"The Knells, Houghton","town":"Carlisle","rgn":"North West","la":"Cumberland","beds":24,"ty":["Residential homes"],"sp":["Caring for adults over 65 yrs","Dementia"],"r":"Good","rs":"Good","re":"Good","rc":"Good","rr":"Good","rw":"Good","ins":"2023-04-19"},{"id":"1-107300355","n":"Alandale Residential Home","pc":"CT16 3JB","lat":51.1648696,"lng":1.2913299,"addr":"9 The Drove, Whitfield","town":"Dover","rgn":"South East","la":"Kent","beds":35,"ty":["Residential homes"],"sp":["Caring for adults over 65 yrs"],"r":"Requires improvement","rs":"Requires improvement","re":"Good","rc":"Good","rr":"Good","rw":"Requires improvement","ins":"2022-12-07"},{"id":"1-107332768","n":"Hillyfield Rest Home Limited","pc":"SO41 0RP","lat":50.7260504,"lng":-1.593556,"addr":"Barnes Lane, Milford-on-Sea","town":"Lymington","rgn":"South East","la":"Hampshire","beds":18,"ty":["Residential homes"],"sp":["Caring for adults over 65 yrs","Dementia"],"r":"Good","rs":"Good","re":"Good","rc":"Good","rr":"Good","rw":"Good","ins":"2022-10-12"},{"id":"1-107340678","n":"Glendale Lodge","pc":"CT14 8BS","lat":51.1879278,"lng":1.3925686,"addr":"Glen Road, Kingsdown","town":"Deal","rgn":"South East","la":"Kent","beds":32,"ty":["Residential homes"],"sp":["Caring for adults over 65 yrs"],"r":"Good","rs":"Good","re":"Requires improvement","rc":"Good","rr":"Good","rw":"Good","ins":"2019-01-11"},{"id":"1-107340693","n":"The Willows","pc":"IP29 4PJ","lat":52.1644097,"lng":0.7123483,"addr":"Corders Farm, Bury Road, Lawshall","town":"Bury St Edmunds","rgn":"East","la":"Suffolk","beds":25,"ty":["Residential homes"],"sp":["Caring for adults over 65 yrs","Caring for adults under 65 yrs"],"r":"Good","rs":"Good","re":"Good","rc":"Good","rr":"Good","rw":"Good","ins":"2020-01-17"},{"id":"1-107345976","n":"Coombe House Residential Home","pc":"PL14 4JU","lat":50.4440047,"lng":-4.4820409,"addr":"Lamellion","town":"Liskeard","rgn":"South West","la":"Cornwall","beds":16,"ty":["Residential homes"],"sp":["Caring for adults over 65 yrs","Dementia","Mental health conditions"],"r":"Outstanding","rs":"Good","re":"Good","rc":"Outstanding","rr":"Outstanding","rw":"Outstanding","ins":"2017-10-23"},{"id":"1-10736723368","n":"Ransdale House","pc":"TS4 3NU","lat":54.5449975,"lng":-1.219927,"addr":"54 Caversham Road, East Side","town":"Middlesbrough","rgn":"North East","la":"Middlesbrough","beds":6,"ty":["Residential homes"],"sp":["Caring for adults under 65 yrs","Learning disabilities","Mental health conditions","Physical disabilities","Sensory impairment"],"r":"Requires improvement","rs":"Requires improvement","re":"Requires improvement","rc":"Good","rr":"Good","rw":"Requires improvement","ins":"2023-03-03"},{"id":"1-10736723408","n":"29 & 30 Dominion Road","pc":"BA2 1DW","lat":51.3803461,"lng":-2.3977873,"addr":"29 & 30 Dominion Road, Twerton","town":"Bath","rgn":"South West","la":"Bath and North East Somerset","beds":4,"ty":["Residential homes"],"sp":["Caring for adults under 65 yrs","Learning disabilities","Mental health conditions","Sensory impairment"],"r":"Good","rs":"Good","re":"Good","rc":"Good","rr":"Good","rw":"Good","ins":null},{"id":"1-10736723438","n":"Gibralter Crescent","pc":"KT19 9BT","lat":51.3472423,"lng":-0.2603999,"addr":"36a Gibraltar Crescent","town":"Epsom","rgn":"South East","la":"Surrey","beds":6,"ty":["Residential homes"],"sp":["Caring for adults under 65 yrs","Learning disabilities","Physical disabilities","Sensory impairment"],"r":"Good","rs":"Good","re":"Good","rc":"Good","rr":"Good","rw":"Good","ins":"2022-11-22"},{"id":"1-10086908874","n":"The Rise Care Home","pc":"EX7 0QL","lat":50.5844114,"lng":-3.4923525,"addr":"Luscombe Hill","town":"Dawlish","rgn":"South West","la":"Devon","beds":36,"ty":["Residential homes"],"sp":["Caring for adults over 65 yrs","Dementia","Physical disabilities","Sensory impairment"],"r":"Good","rs":"Good","re":"Good","rc":"Good","rr":"Good","rw":"Good","ins":"2022-04-14"},{"id":"1-10087422956","n":"Saxby Lodge Residential Care Home","pc":"PO21 2EJ","lat":50.7915783,"lng":-0.6749088,"addr":"124 Victoria Drive","town":"Bognor Regis","rgn":"South East","la":"West Sussex","beds":19,"ty":["Residential homes"],"sp":["Caring for adults over 65 yrs","Dementia"],"r":null,"rs":null,"re":null,"rc":null,"rr":null,"rw":null,"ins":"2023-06-08"},{"id":"1-10091346189","n":"Karenza Care Home","pc":"TR5 0UD","lat":50.3100828,"lng":-5.1980955,"addr":"18 Rosemundy","town":"St. Agnes","rgn":"South West","la":"Cornwall","beds":22,"ty":["Nursing homes"],"sp":["Caring for adults over 65 yrs","Caring for adults under 65 yrs","Physical disabilities"],"r":"Requires improvement","rs":"Requires improvement","re":"Requires improvement","rc":"Good","rr":"Good","rw":"Requires improvement","ins":"2023-05-02"},{"id":"1-1010200978","n":"Ashlea House","pc":"TN24 9BP","lat":51.1657321,"lng":0.8780663,"addr":"Bockhanger Lane, Kennington","town":"Ashford","rgn":"South East","la":"Kent","beds":4,"ty":["Residential homes"],"sp":["Caring for adults under 65 yrs","Learning disabilities"],"r":"Good","rs":"Good","re":"Good","rc":"Good","rr":"Good","rw":"Good","ins":"2019-05-23"},{"id":"1-1010201117","n":"Birch House","pc":"TN26 2AF","lat":51.0319431,"lng":0.7888652,"addr":"The Street, Appledore","town":"Ashford","rgn":"South East","la":"Kent","beds":5,"ty":["Residential homes"],"sp":["Caring for adults under 65 yrs","Learning disabilities"],"r":null,"rs":null,"re":null,"rc":null,"rr":null,"rw":null,"ins":"2019-06-11"},{"id":"1-1010701645","n":"Sunnyside","pc":"NR29 4PZ","lat":52.7108105,"lng":1.6364032,"addr":"12 Damgate Lane, Martham","town":"Great Yarmouth","rgn":"East","la":"Norfolk","beds":4,"ty":["Residential homes"],"sp":["Caring for adults under 65 yrs","Learning disabilities","Mental health conditions","Sensory impairment"],"r":"Requires improvement","rs":"Requires improvement","re":"Good","rc":"Requires improvement","rr":"Requires improvement","rw":"Requires improvement","ins":"2020-10-01"},{"id":"1-10122504484","n":"Cascade (Hurst House)","pc":"NR5 0HZ","lat":52.6481008,"lng":1.218872,"addr":"95 Grove Avenue, New Costessey","town":"Norwich","rgn":"East","la":"Norfolk","beds":8,"ty":["Residential homes"],"sp":["Caring for adults under 65 yrs","Caring for children","Learning disabilities"],"r":null,"rs":null,"re":null,"rc":null,"rr":null,"rw":null,"ins":null},{"id":"1-10126448659","n":"Lindsey Hall Care Home","pc":"DN35 8AF","lat":53.5580233,"lng":-0.0420604,"addr":"Clee Road","town":"Cleethorpes","rgn":"Yorkshire & Humberside","la":"North East Lincolnshire","beds":79,"ty":["Residential homes"],"sp":["Caring for adults over 65 yrs","Caring for adults under 65 yrs","Dementia","Mental health conditions","Physical disabilities"],"r":"Good","rs":"Good","re":"Good","rc":"Good","rr":"Good","rw":"Good","ins":"2022-06-16"},{"id":"1-1013392643","n":"Poplars Care Home","pc":"SO16 3GD","lat":50.9397632,"lng":-1.3988623,"addr":"4 Glen Eyre Way, Bassett","town":"Southampton","rgn":"South East","la":"Southampton","beds":14,"ty":["Residential homes"],"sp":["Caring for adults over 65 yrs","Dementia"],"r":"Good","rs":"Good","re":"Good","rc":"Good","rr":"Good","rw":"Good","ins":"2022-07-04"},{"id":"1-10145657596","n":"Goldenview Care Home","pc":"ST3 7SS","lat":52.9487275,"lng":-2.098898,"addr":"Lake Croft Drive, Meir Heath","town":"Stoke-on-trent","rgn":"West Midlands","la":"Staffordshire","beds":36,"ty":["Nursing homes"],"sp":["Caring for adults over 65 yrs","Caring for adults under 65 yrs","Dementia","Physical disabilities"],"r":null,"rs":null,"re":null,"rc":null,"rr":null,"rw":null,"ins":null},{"id":"1-10160947957","n":"Highgrove","pc":"BL9 7NL","lat":53.5992014,"lng":-2.2667189,"addr":"High Grove, Broad Oak Lane","town":"Bury","rgn":"North West","la":"Bury","beds":3,"ty":["Residential homes"],"sp":["Caring for adults over 65 yrs","Caring for adults under 65 yrs","Learning disabilities"],"r":"Good","rs":"Good","re":"Good","rc":"Good","rr":"Good","rw":"Good","ins":"2023-03-09"},{"id":"1-10162181275","n":"Buckingham Lodge Care Home","pc":"IP25 6WL","lat":52.5700109,"lng":0.858798,"addr":"Buckingham Close, Carbrooke","town":"Thetford","rgn":"East","la":"Norfolk","beds":73,"ty":["Nursing homes"],"sp":["Caring for adults over 65 yrs","Caring for adults under 65 yrs","Dementia","Physical disabilities","Sensory impairment"],"r":"Requires improvement","rs":"Requires improvement","re":"Requires improvement","rc":"Good","rr":"Requires improvement","rw":"Good","ins":"2022-10-13"},{"id":"1-10166721141","n":"Woodstown House","pc":"SM7 3EF","lat":51.315927,"lng":-0.185468,"addr":"Park Road","town":"Banstead","rgn":"South East","la":"Surrey","beds":40,"ty":["Nursing homes"],"sp":["Caring for adults over 65 yrs","Caring for adults under 65 yrs","Physical disabilities","Sensory impairment"],"r":"Good","rs":"Good","re":"Good","rc":"Good","rr":"Good","rw":"Good","ins":"2022-03-28"},{"id":"1-10170537209","n":"The Larches","pc":"IP14 1BJ","lat":52.1827037,"lng":0.9985167,"addr":"Woodfield Drive","town":"Stowmarket","rgn":"East","la":"Suffolk","beds":5,"ty":["Residential homes"],"sp":["Caring for adults under 65 yrs","Learning disabilities","Mental health conditions"],"r":"Good","rs":"Good","re":"Good","rc":"Good","rr":"Good","rw":"Good","ins":"2022-03-24"},{"id":"1-10192527529","n":"7 Horse Leaze","pc":"E6 6WJ","lat":51.5125156,"lng":0.0661667,"addr":"7 Horse Leaze","town":"London","rgn":"London","la":"Newham","beds":6,"ty":["Residential homes"],"sp":["Caring for adults over 65 yrs","Learning disabilities","Physical disabilities","Sensory impairment"],"r":"Good","rs":"Good","re":"Good","rc":"Good","rr":"Good","rw":"Good","ins":"2023-02-09"},{"id":"1-10192918863","n":"The Ings","pc":"S73 0HQ","lat":53.520582,"lng":-1.393147,"addr":"Park Street, Wombwell","town":"Barnsley","rgn":"Yorkshire & Humberside","la":"Barnsley","beds":6,"ty":["Residential homes"],"sp":["Caring for adults under 65 yrs","Learning disabilities","Mental health conditions"],"r":"Good","rs":"Good","re":"Good","rc":"Good","rr":"Good","rw":"Good","ins":"2022-06-21"},{"id":"1-10192918971","n":"Woodways","pc":"S73 0HQ","lat":53.520582,"lng":-1.393147,"addr":"Park Street, Wombwell","town":"Barnsley","rgn":"Yorkshire & Humberside","la":"Barnsley","beds":6,"ty":["Residential homes"],"sp":["Caring for adults under 65 yrs","Learning disabilities","Mental health conditions"],"r":null,"rs":null,"re":null,"rc":null,"rr":null,"rw":null,"ins":"2021-10-29"},{"id":"1-10198909495","n":"Red Oaks Care Community","pc":"NG19 0HL","lat":53.1571456,"lng":-1.1476037,"addr":"116 Clipstone Road West, Forest Town","town":"Mansfield","rgn":"East Midlands","la":"Nottinghamshire","beds":60,"ty":["Nursing homes"],"sp":["Caring for adults over 65 yrs","Caring for adults under 65 yrs","Dementia"],"r":"Good","rs":"Requires improvement","re":"Good","rc":"Good","rr":"Good","rw":"Good","ins":"2022-08-18"},{"id":"1-10199032786","n":"The Lilacs Residential Home","pc":"SS0 8NL","lat":51.5396582,"lng":0.6776421,"addr":"121 Chalkwell Avenue","town":"Westcliff-on-sea","rgn":"East","la":"Southend-on-Sea","beds":17,"ty":["Residential homes"],"sp":["Caring for adults over 65 yrs","Dementia"],"r":"Requires improvement","rs":"Requires improvement","re":"Good","rc":"Good","rr":"Good","rw":"Requires improvement","ins":"2022-08-15"},{"id":"1-1080115563","n":"Julians House","pc":"SG1 3ES","lat":51.9150387,"lng":-0.2113529,"addr":"6 Julians Road","town":"Stevenage","rgn":"East","la":"Hertfordshire","beds":7,"ty":["Residential homes"],"sp":["Caring for adults under 65 yrs","Learning disabilities"],"r":"Good","rs":"Good","re":"Good","rc":"Good","rr":"Good","rw":"Good","ins":"2021-03-09"},{"id":"1-10801450530","n":"Trewan House Care Home","pc":"WA8 8XR","lat":53.3709432,"lng":-2.776032,"addr":"335 Ditchfield Road","town":"Widnes","rgn":"North West","la":"Halton","beds":45,"ty":["Residential homes"],"sp":["Caring for adults over 65 yrs","Dementia"],"r":"Requires improvement","rs":"Requires improvement","re":"Good","rc":"Good","rr":"Good","rw":"Requires improvement","ins":"2022-12-01"},{"id":"1-10801453805","n":"Springfield Lodge","pc":"LA4 6AP","lat":54.0793635,"lng":-2.8372441,"addr":"14 Elms Road","town":"Morecambe","rgn":"North West","la":"Lancashire","beds":15,"ty":["Residential homes"],"sp":["Caring for adults over 65 yrs","Caring for adults under 65 yrs","Dementia"],"r":null,"rs":null,"re":null,"rc":null,"rr":null,"rw":null,"ins":"2022-08-05"},{"id":"1-10802134245","n":"Heeley Bank Care Home","pc":"S2 3GL","lat":53.362851,"lng":-1.462935,"addr":"Heeley Bank Road","town":"Sheffield","rgn":"Yorkshire & Humberside","la":"Sheffield","beds":67,"ty":["Nursing homes"],"sp":["Caring for adults over 65 yrs","Caring for adults under 65 yrs","Dementia"],"r":null,"rs":null,"re":null,"rc":null,"rr":null,"rw":null,"ins":"2023-01-24"},{"id":"1-10803102915","n":"Park View Care Home","pc":"L8 3SR","lat":53.382609,"lng":-2.953917,"addr":"14 Ullet Road","town":"Liverpool","rgn":"North West","la":"Liverpool","beds":56,"ty":["Nursing homes"],"sp":["Caring for adults over 65 yrs","Caring for adults under 65 yrs","Dementia","Mental health conditions","Physical disabilities"],"r":null,"rs":null,"re":null,"rc":null,"rr":null,"rw":null,"ins":"2022-10-17"},{"id":"1-10806328975","n":"Goldendale Residential Care Home","pc":"ST6 5JQ","lat":53.0592801,"lng":-2.2174905,"addr":"45 Plex Street","town":"Stoke-on-trent","rgn":"West Midlands","la":"Stoke-on-Trent","beds":42,"ty":["Nursing homes"],"sp":["Caring for adults over 65 yrs","Dementia"],"r":"Good","rs":"Good","re":"Good","rc":"Good","rr":"Good","rw":"Good","ins":null},{"id":"1-10807564995","n":"Spring House","pc":"EX2 4PD","lat":50.7176739,"lng":-3.5170113,"addr":"Spring House, Matford Road","town":"Exeter","rgn":"South West","la":"Devon","beds":6,"ty":["Nursing homes"],"sp":["Caring for adults under 65 yrs","Learning disabilities"],"r":"Requires improvement","rs":"Requires improvement","re":"Requires improvement","rc":"Good","rr":"Good","rw":"Requires improvement","ins":"2022-08-16"},{"id":"1-10808814545","n":"Sundial Cottage Rest Home Ltd","pc":"SO45 1BW","lat":50.8140294,"lng":-1.3416021,"addr":"Badminston Drove, Fawley","town":"Southampton","rgn":"South East","la":"Hampshire","beds":22,"ty":["Residential homes"],"sp":["Caring for adults over 65 yrs","Dementia","Mental health conditions","Physical disabilities","Sensory impairment"],"r":"Requires improvement","rs":"Requires improvement","re":"Requires improvement","rc":"Good","rr":"Good","rw":"Requires improvement","ins":"2022-08-24"},{"id":"1-10809146644","n":"GHC Nursing Home","pc":"NG16 2GE","lat":53.007085,"lng":-1.2836626,"addr":"472 Nottingham Road, Giltbrook","town":"Nottingham","rgn":"East Midlands","la":"Nottinghamshire","beds":40,"ty":["Nursing homes"],"sp":["Caring for adults over 65 yrs","Caring for adults under 65 yrs","Dementia","Eating disorders","Physical disabilities","Sensory impairment"],"r":null,"rs":null,"re":null,"rc":null,"rr":null,"rw":null,"ins":"2022-03-09"},{"id":"1-10813741785","n":"Holly House Care Home","pc":"NE37 1BJ","lat":54.9077412,"lng":-1.5323516,"addr":"Albany Way","town":"Washington","rgn":"North East","la":"Sunderland","beds":40,"ty":["Residential homes"],"sp":["Caring for adults over 65 yrs","Caring for adults under 65 yrs","Dementia","Mental health conditions","Physical disabilities"],"r":"Good","rs":"Good","re":"Good","rc":"Good","rr":"Good","rw":"Good","ins":"2022-09-20"},{"id":"1-10814619493","n":"Carlton Hall Residential Home and Village","pc":"NR33 8BL","lat":52.452495,"lng":1.690918,"addr":"Chapel Road, Carlton Colville","town":"Lowestoft","rgn":"East","la":"Suffolk","beds":86,"ty":["Residential homes","Homecare agencies"],"sp":["Caring for adults over 65 yrs","Caring for adults under 65 yrs","Dementia"],"r":"Good","rs":"Good","re":"Good","rc":"Good","rr":"Good","rw":"Good","ins":"2022-06-20"},{"id":"1-10814796567","n":"Marula Lodge","pc":"GU16 6AE","lat":51.2863543,"lng":-0.7258754,"addr":"156 Mytchett Road, Mytchett","town":"Camberley","rgn":"South East","la":"Surrey","beds":42,"ty":["Nursing homes"],"sp":["Caring for adults over 65 yrs","Caring for adults under 65 yrs","Dementia","Mental health conditions","Physical disabilities"],"r":"Good","rs":"Requires improvement","re":"Good","rc":"Good","rr":"Good","rw":"Good","ins":"2022-06-27"},{"id":"1-10815232364","n":"Elmbrook Court Care Home","pc":"OX12 7BY","lat":51.595244,"lng":-1.4215539,"addr":"Grove Road","town":"Wantage","rgn":"South East","la":"Oxfordshire","beds":74,"ty":["Nursing homes"],"sp":["Caring for adults over 65 yrs","Caring for adults under 65 yrs","Dementia","Physical disabilities","Sensory impairment"],"r":"Good","rs":"Good","re":"Good","rc":"Good","rr":"Good","rw":"Good","ins":"2022-06-28"},{"id":"1-1081565974","n":"Spring Tree Rest Home","pc":"B77 1EL","lat":52.6110312,"lng":-1.6803342,"addr":"433 Watling Street, Two Gates","town":"Tamworth","rgn":"West Midlands","la":"Staffordshire","beds":30,"ty":["Residential homes"],"sp":["Dementia"],"r":null,"rs":null,"re":null,"rc":null,"rr":null,"rw":null,"ins":"2022-03-15"},{"id":"1-108298048","n":"Coombe Dingle Nursing Home","pc":"CR3 5RB","lat":51.2835444,"lng":-0.0911278,"addr":"14 Queens Park Road","town":"Caterham","rgn":"South East","la":"Surrey","beds":35,"ty":["Nursing homes"],"sp":["Caring for adults over 65 yrs","Dementia"],"r":"Good","rs":"Good","re":"Good","rc":"Good","rr":"Good","rw":"Good","ins":"2020-01-09"},{"id":"1-108306728","n":"Elderthorpe Residential Home","pc":"BD18 3AN","lat":53.8225652,"lng":-1.7775146,"addr":"230-232 Bradford Road","town":"Shipley","rgn":"Yorkshire & Humberside","la":"Bradford","beds":28,"ty":["Residential homes"],"sp":["Caring for adults over 65 yrs"],"r":"Good","rs":"Requires improvement","re":"Good","rc":"Good","rr":"Good","rw":"Good","ins":"2022-02-24"},{"id":"1-108307260","n":"Belvedere House","pc":"SM7 3HB","lat":51.3253052,"lng":-0.1756573,"addr":"Weston Acres, Woodmansterne Lane","town":"Banstead","rgn":"South East","la":"Surrey","beds":68,"ty":["Nursing homes"],"sp":["Caring for adults over 65 yrs","Dementia","Physical disabilities","Sensory impairment"],"r":"Good","rs":"Good","re":"Requires improvement","rc":"Good","rr":"Good","rw":"Good","ins":"2019-04-15"},{"id":"1-108311205","n":"St Georges Residential Care Home","pc":"CR4 1EB","lat":51.4023349,"lng":-0.1506517,"addr":"30 St Georges Road","town":"Mitcham","rgn":"London","la":"Merton","beds":3,"ty":["Residential homes"],"sp":["Learning disabilities"],"r":"Good","rs":"Good","re":"Good","rc":"Good","rr":"Good","rw":"Good","ins":"2023-05-10"},{"id":"1-108317835","n":"Ferndale Nursing Home","pc":"RH10 6BH","lat":51.1075752,"lng":-0.1894555,"addr":"124 Malthouse Road, Southgate","town":"Crawley","rgn":"South East","la":"West Sussex","beds":28,"ty":["Nursing homes"],"sp":["Caring for adults over 65 yrs","Dementia"],"r":"Good","rs":"Requires improvement","re":"Good","rc":"Good","rr":"Good","rw":"Good","ins":"2021-03-09"},{"id":"1-108320885","n":"Poplars Care Home","pc":"HA4 7BZ","lat":51.5736935,"lng":-0.4260387,"addr":"15-17 Ickenham Road","town":"Ruislip","rgn":"London","la":"Hillingdon","beds":27,"ty":["Residential homes"],"sp":["Caring for adults over 65 yrs","Caring for adults under 65 yrs","Dementia","Learning disabilities","Mental health conditions","Physical disabilities","Sensory impairment"],"r":null,"rs":null,"re":null,"rc":null,"rr":null,"rw":null,"ins":"2021-03-11"},{"id":"1-108323085","n":"Ivy Lodge Retirement Home","pc":"YO32 3YP","lat":54.007705,"lng":-1.0780881,"addr":"Briergate, Haxby","town":"York","rgn":"Yorkshire & Humberside","la":"York","beds":33,"ty":["Residential homes"],"sp":["Caring for adults over 65 yrs"],"r":"Good","rs":"Good","re":"Good","rc":"Outstanding","rr":"Good","rw":"Good","ins":"2022-05-24"},{"id":"1-108323728","n":"Kolbe House","pc":"W5 3HH","lat":51.5139315,"lng":-0.2917467,"addr":"18 Hanger Lane, Ealing","town":"London","rgn":"London","la":"Ealing","beds":25,"ty":["Residential homes"],"sp":["Caring for adults over 65 yrs"],"r":"Good","rs":"Good","re":"Good","rc":"Good","rr":"Good","rw":"Good","ins":"2019-01-10"},{"id":"1-108329896","n":"Devonshire House","pc":"DL14 9HW","lat":54.6321768,"lng":-1.7220714,"addr":"The Green, West Auckland","town":"Bishop Auckland","rgn":"North East","la":"County Durham","beds":25,"ty":["Residential homes"],"sp":["Caring for adults over 65 yrs","Caring for adults under 65 yrs","Dementia","Physical disabilities","Sensory impairment"],"r":"Good","rs":"Good","re":"Good","rc":"Good","rr":"Good","rw":"Good","ins":"2021-01-12"},{"id":"1-108330425","n":"The Old Rectory","pc":"ST18 0EY","lat":52.8808815,"lng":-2.00575,"addr":"Fradswell Lane, Fradswell","town":"Stafford","rgn":"West Midlands","la":"Staffordshire","beds":27,"ty":["Residential homes"],"sp":["Caring for adults over 65 yrs","Dementia"],"r":"Good","rs":"Good","re":"Good","rc":"Good","rr":"Good","rw":"Requires improvement","ins":"2022-02-08"},{"id":"1-108376838","n":"Calvert Trust Kielder","pc":"NE48 1BS","lat":55.1647306,"lng":-2.5317642,"addr":"Kielder Water and Forest Park","town":"Hexham","rgn":"North East","la":"Northumberland","beds":20,"ty":["Residential homes"],"sp":["Caring for adults over 65 yrs","Caring for adults under 65 yrs","Learning disabilities","Physical disabilities","Sensory impairment"],"r":"Good","rs":"Good","re":"Good","rc":"Good","rr":"Good","rw":"Good","ins":"2020-03-30"},{"id":"1-108380542","n":"Beverley Court Residential Home","pc":"HU5 1LH","lat":53.7619165,"lng":-0.3497674,"addr":"334-336 Beverley Road","town":"Hull","rgn":"Yorkshire & Humberside","la":"Kingston upon Hull, City of","beds":30,"ty":["Residential homes"],"sp":["Caring for adults over 65 yrs","Dementia"],"r":null,"rs":null,"re":null,"rc":null,"rr":null,"rw":null,"ins":"2019-06-20"},{"id":"1-108389651","n":"Cornwell House, Beehive Care","pc":"BN12 5NN","lat":50.8080606,"lng":-0.4464684,"addr":"Cornwell House, 23-25 Beehive Lane, Ferring","town":"Worthing","rgn":"South East","la":"West Sussex","beds":20,"ty":["Residential homes"],"sp":["Caring for adults over 65 yrs","Dementia"],"r":"Good","rs":"Good","re":"Good","rc":"Good","rr":"Good","rw":"Good","ins":"2019-04-30"},{"id":"1-108391794","n":"Benslow Nursing Home","pc":"SG4 9QY","lat":51.9509527,"lng":-0.263149,"addr":"Benslow Rise","town":"Hitchin","rgn":"East","la":"Hertfordshire","beds":35,"ty":["Nursing homes"],"sp":["Caring for adults over 65 yrs","Dementia"],"r":"Good","rs":"Good","re":"Good","rc":"Good","rr":"Good","rw":"Good","ins":"2022-02-24"},{"id":"1-1084002692","n":"Arcare for Forte Limited","pc":"WV14 9QB","lat":52.5458923,"lng":-2.0938281,"addr":"(For Forte House) 440 Birmingham New Road","town":"Bilston","rgn":"West Midlands","la":"Dudley","beds":9,"ty":["Residential homes"],"sp":["Caring for adults over 65 yrs","Caring for adults under 65 yrs","Learning disabilities","Mental health conditions","Physical disabilities","Sensory impairment"],"r":"Good","rs":"Good","re":"Good","rc":"Good","rr":"Good","rw":"Good","ins":"2022-01-18"},{"id":"1-108422526","n":"Robin Hood House","pc":"HP4 1PL","lat":51.8033812,"lng":-0.5527175,"addr":"Nettleden Road","town":"Little Gaddesden","rgn":"East","la":"Hertfordshire","beds":23,"ty":["Residential homes"],"sp":["Caring for adults over 65 yrs","Dementia"],"r":"Requires improvement","rs":"Requires improvement","re":"Good","rc":"Good","rr":"Good","rw":"Requires improvement","ins":"2022-10-19"},{"id":"1-10847352385","n":"Wykewood","pc":"BD12 8AA","lat":53.7415223,"lng":-1.7688756,"addr":"Huddersfield Road, Wyke","town":"Bradford","rgn":"Yorkshire & Humberside","la":"Bradford","beds":40,"ty":["Nursing homes"],"sp":["Caring for adults over 65 yrs","Caring for adults under 65 yrs","Dementia","Mental health conditions","Physical disabilities"],"r":"Good","rs":"Requires improvement","re":"Good","rc":"Good","rr":"Good","rw":"Good","ins":"2023-05-04"},{"id":"1-1085049968","n":"Hallmark Maycroft Manor Luxury Care Home","pc":"BN1 8NA","lat":50.8562069,"lng":-0.1533376,"addr":"2-8 Carden Avenue","town":"Brighton","rgn":"South East","la":"Brighton and Hove","beds":105,"ty":["Nursing homes"],"sp":["Caring for adults over 65 yrs","Caring for adults under 65 yrs","Dementia","Mental health conditions","Physical disabilities","Sensory impairment"],"r":"Good","rs":"Good","re":"Good","rc":"Good","rr":"Good","rw":"Good","ins":"2022-09-28"},{"id":"1-108521111","n":"Chilmington House","pc":"RG30 2ES","lat":51.4494231,"lng":-0.998618,"addr":"Armadale Court, Westcote Road","town":"Reading","rgn":"South East","la":"Reading","beds":7,"ty":["Residential homes"],"sp":["Caring for adults over 65 yrs","Caring for adults under 65 yrs","Dementia","Learning disabilities","Physical disabilities","Sensory impairment"],"r":"Good","rs":"Good","re":"Good","rc":"Good","rr":"Good","rw":"Good","ins":"2017-06-08"},{"id":"1-10852363984","n":"Oak Lodge","pc":"TA20 2HN","lat":50.8677796,"lng":-2.957319,"addr":"Lordsleaze Lane","town":"Chard","rgn":"South West","la":"Somerset","beds":47,"ty":["Nursing homes"],"sp":["Caring for adults over 65 yrs","Dementia"],"r":"Good","rs":"Good","re":"Good","rc":"Good","rr":"Good","rw":"Good","ins":"2022-08-17"},{"id":"1-10853560587","n":"Roop Cottage Residential Home","pc":"WF9 5AN","lat":53.6365574,"lng":-1.3812167,"addr":"Wakefield Road, Fitzwilliam","town":"Pontefract","rgn":"Yorkshire & Humberside","la":"Wakefield","beds":35,"ty":["Residential homes"],"sp":["Caring for adults over 65 yrs","Caring for adults under 65 yrs","Dementia","Learning disabilities","Mental health conditions","Physical disabilities","Sensory impairment","Substance misuse problems"],"r":null,"rs":null,"re":null,"rc":null,"rr":null,"rw":null,"ins":"2023-12-01"},{"id":"1-10855459135","n":"St Teresa's Home for the Elderly","pc":"SW20 8AN","lat":51.4166428,"lng":-0.2254685,"addr":"12 Lansdowne Road, Wimbledon","town":"London","rgn":"London","la":"Merton","beds":28,"ty":["Nursing homes"],"sp":["Caring for adults over 65 yrs"],"r":"Good","rs":"Good","re":"Good","rc":"Good","rr":"Good","rw":"Good","ins":"2023-01-12"},{"id":"1-108565934","n":"Acorn Lodge - Bournemouth","pc":"BH6 3SY","lat":50.7249536,"lng":-1.8148992,"addr":"12 Grand Avenue, Southbourne","town":"Bournemouth","rgn":"South West","la":"Bournemouth, Christchurch and Poole","beds":9,"ty":["Residential homes"],"sp":["Learning disabilities"],"r":null,"rs":null,"re":null,"rc":null,"rr":null,"rw":null,"ins":"2019-07-23"},{"id":"1-10858801772","n":"118 Widmore Road","pc":"BR1 3BE","lat":51.4067013,"lng":0.0256891,"addr":"118 Widmore Road","town":"Bromley","rgn":"London","la":"Bromley","beds":10,"ty":["Residential homes"],"sp":["Caring for adults under 65 yrs","Learning disabilities"],"r":"Good","rs":"Good","re":"Good","rc":"Good","rr":"Good","rw":"Good","ins":"2023-05-10"},{"id":"1-10392924945","n":"Arboretum Nursing Home","pc":"WS2 7AF","lat":52.6003096,"lng":-1.9879469,"addr":"Forest Lane","town":"Walsall","rgn":"West Midlands","la":"Walsall","beds":54,"ty":["Nursing homes"],"sp":["Caring for adults over 65 yrs","Caring for adults under 65 yrs","Physical disabilities","Sensory impairment"],"r":null,"rs":null,"re":null,"rc":null,"rr":null,"rw":null,"ins":"2022-08-25"},{"id":"1-10393202436","n":"Three Cups","pc":"CO12 5AQ","lat":51.9042918,"lng":1.1891105,"addr":"High Street, Great Oakley","town":"Harwich","rgn":"East","la":"Essex","beds":5,"ty":["Residential homes"],"sp":["Caring for adults over 65 yrs","Caring for adults under 65 yrs","Learning disabilities"],"r":null,"rs":null,"re":null,"rc":null,"rr":null,"rw":null,"ins":null},{"id":"1-10398843229","n":"Elliscombe House","pc":"BA9 8EA","lat":51.0454203,"lng":-2.461372,"addr":"Elliscombe","town":"Wincanton","rgn":"South West","la":"Somerset","beds":35,"ty":["Nursing homes"],"sp":["Caring for adults over 65 yrs","Dementia","Physical disabilities","Sensory impairment"],"r":null,"rs":null,"re":null,"rc":null,"rr":null,"rw":null,"ins":"2022-11-03"},{"id":"1-10399792475","n":"The Cedars","pc":"BS23 1DG","lat":51.3404312,"lng":-2.9801574,"addr":"8-10 Clevedon Road","town":"Weston-super-mare","rgn":"South West","la":"North Somerset","beds":28,"ty":["Residential homes"],"sp":["Caring for adults over 65 yrs","Caring for adults under 65 yrs"],"r":null,"rs":null,"re":null,"rc":null,"rr":null,"rw":null,"ins":"2023-02-23"},{"id":"1-1040452175","n":"Springfield Care Home Limited","pc":"DL1 2QA","lat":54.5443741,"lng":-1.5360935,"addr":"Wylam Avenue","town":"Darlington","rgn":"North East","la":"Darlington","beds":40,"ty":["Residential homes"],"sp":["Caring for adults over 65 yrs","Caring for adults under 65 yrs","Dementia"],"r":"Good","rs":"Good","re":"Good","rc":"Good","rr":"Good","rw":"Good","ins":"2022-01-12"},{"id":"1-10404597506","n":"Lionsfield House","pc":"CV6 3DL","lat":52.4310484,"lng":-1.5210462,"addr":"60 Links Road","town":"Coventry","rgn":"West Midlands","la":"Coventry","beds":11,"ty":["Residential homes"],"sp":["Caring for adults over 65 yrs","Caring for adults under 65 yrs","Mental health conditions"],"r":"Requires improvement","rs":"Requires improvement","re":"Good","rc":"Requires improvement","rr":"Good","rw":"Requires improvement","ins":"2022-07-25"},{"id":"1-10404763622","n":"Smithy Bridge Court","pc":"OL15 8QN","lat":53.6331317,"lng":-2.1144399,"addr":"4 Barke Street","town":"Littleborough","rgn":"North West","la":"Rochdale","beds":51,"ty":["Nursing homes"],"sp":["Caring for adults over 65 yrs","Caring for adults under 65 yrs","Dementia","Mental health conditions","Physical disabilities","Sensory impairment"],"r":null,"rs":null,"re":null,"rc":null,"rr":null,"rw":null,"ins":"2023-06-21"},{"id":"1-1040494951","n":"Ross Court Care Home","pc":"HR9 7BQ","lat":51.9240679,"lng":-2.5730352,"addr":"Overross Close","town":"Ross On Wye","rgn":"West Midlands","la":"Herefordshire, County of","beds":37,"ty":["Residential homes"],"sp":["Caring for adults over 65 yrs"],"r":"Good","rs":"Good","re":"Good","rc":"Good","rr":"Good","rw":"Good","ins":"2023-08-30"},{"id":"1-10410861700","n":"Little Oaks Residential Home","pc":"HP11 1QG","lat":51.6153142,"lng":-0.7492793,"addr":"Daws Lea","town":"High Wycombe","rgn":"South East","la":"Buckinghamshire","beds":30,"ty":["Residential homes"],"sp":["Caring for adults over 65 yrs","Dementia"],"r":"Good","rs":"Good","re":"Good","rc":"Outstanding","rr":"Good","rw":"Good","ins":null},{"id":"1-10411363236","n":"Benson House Care Home","pc":"OX10 6SH","lat":51.6213262,"lng":-1.1161916,"addr":"1 Churchfield Lane, Benson","town":"Wallingford","rgn":"South East","la":"Oxfordshire","beds":70,"ty":["Nursing homes"],"sp":["Caring for adults over 65 yrs","Caring for adults under 65 yrs","Dementia"],"r":"Good","rs":"Good","re":"Good","rc":"Good","rr":"Good","rw":"Good","ins":"2022-06-15"},{"id":"1-10412438871","n":"Earlfield Lodge","pc":"BS23 2RR","lat":51.352828,"lng":-2.9686605,"addr":"21-31 Trewartha Park","town":"Weston-super-mare","rgn":"South West","la":"North Somerset","beds":35,"ty":["Residential homes"],"sp":["Caring for adults over 65 yrs","Caring for adults under 65 yrs","Dementia"],"r":null,"rs":null,"re":null,"rc":null,"rr":null,"rw":null,"ins":"2023-02-22"},{"id":"1-1042267691","n":"Willow House","pc":"TQ10 9AY","lat":50.4303456,"lng":-3.829604,"addr":"Hillside","town":"South Brent","rgn":"South West","la":"Devon","beds":30,"ty":["Residential homes"],"sp":["Caring for adults over 65 yrs","Dementia","Mental health conditions","Physical disabilities"],"r":"Good","rs":"Good","re":"Good","rc":"Good","rr":"Good","rw":"Requires improvement","ins":"2022-01-27"},{"id":"1-1042689019","n":"Carrington Park","pc":"NG5 1AW","lat":52.972153,"lng":-1.15485,"addr":"2 Clinton Avenue","town":"Nottingham","rgn":"East Midlands","la":"Nottingham","beds":8,"ty":["Residential homes"],"sp":["Caring for adults under 65 yrs","Learning disabilities","Mental health conditions","Physical disabilities","Sensory impairment"],"r":"Good","rs":"Good","re":"Good","rc":"Good","rr":"Good","rw":"Good","ins":"2022-05-26"},{"id":"1-1043708006","n":"Brunswick Mews","pc":"WS10 9QR","lat":52.5595651,"lng":-2.0047012,"addr":"70 Brunswick Park Road","town":"Wednesbury","rgn":"West Midlands","la":"Sandwell","beds":3,"ty":["Residential homes"],"sp":["Caring for adults over 65 yrs","Caring for adults under 65 yrs","Learning disabilities","Mental health conditions"],"r":"Good","rs":"Good","re":"Good","rc":"Good","rr":"Good","rw":"Good","ins":"2018-03-13"},{"id":"1-10438524205","n":"Harrier House Care Home","pc":"NG15 6WN","lat":53.0185298,"lng":-1.2250518,"addr":"Hurricane Road, Hucknall","town":"Nottingham","rgn":"East Midlands","la":"Nottinghamshire","beds":84,"ty":["Residential homes"],"sp":["Caring for adults over 65 yrs","Caring for adults under 65 yrs","Dementia","Mental health conditions","Physical disabilities","Sensory impairment"],"r":"Good","rs":"Good","re":"Good","rc":"Good","rr":"Good","rw":"Good","ins":"2022-08-10"},{"id":"1-10439819700","n":"Upton Bay Care Home","pc":"BH15 4HY","lat":50.7197405,"lng":-2.0142203,"addr":"1 Hoyal Road","town":"Poole","rgn":"South West","la":"Bournemouth, Christchurch and Poole","beds":68,"ty":["Residential homes"],"sp":["Caring for adults over 65 yrs","Caring for adults under 65 yrs","Dementia"],"r":"Good","rs":"Good","re":"Good","rc":"Good","rr":"Good","rw":"Good","ins":"2022-04-06"},{"id":"1-104456550","n":"Visitation of Our Lady Residential Care Home","pc":"W5 2RU","lat":51.5209141,"lng":-0.3044582,"addr":"57 Mount Park Road, Ealing","town":"London","rgn":"London","la":"Ealing","beds":5,"ty":["Residential homes"],"sp":["Caring for adults over 65 yrs"],"r":"Good","rs":"Good","re":"Good","rc":"Good","rr":"Good","rw":"Good","ins":"2022-01-18"},{"id":"1-1045152825","n":"The Dovecote Residential Care Home","pc":"NG19 7SA","lat":53.1701605,"lng":-1.2418913,"addr":"69 Bagshaw Street, Pleasley","town":"Mansfield","rgn":"East Midlands","la":"Nottinghamshire","beds":18,"ty":["Residential homes"],"sp":["Learning disabilities"],"r":"Good","rs":"Good","re":"Good","rc":"Good","rr":"Outstanding","rw":"Good","ins":"2019-10-24"},{"id":"1-1045537301","n":"Thornlea Rest Home","pc":"FY4 2QP","lat":53.784871,"lng":-3.0355668,"addr":"308 St Annes Road, South Shore","town":"Blackpool","rgn":"North West","la":"Blackpool","beds":17,"ty":["Residential homes"],"sp":["Caring for adults over 65 yrs"],"r":null,"rs":null,"re":null,"rc":null,"rr":null,"rw":null,"ins":"2018-04-11"},{"id":"1-10456024238","n":"Schoen Clinic York, Wellen Court","pc":"YO31 8TA","lat":53.9735441,"lng":-1.0748019,"addr":"Haxby Road","town":"York","rgn":"Yorkshire & Humberside","la":"York","beds":30,"ty":["Nursing homes","Hospitals - Mental health/capacity"],"sp":["Caring for adults over 65 yrs","Caring for adults under 65 yrs","Caring for children","Caring for people whose rights are restricted under the Mental Health Act","Dementia","Eating disorders","Mental health conditions","Physical disabilities","Sensory impairment"],"r":null,"rs":null,"re":null,"rc":null,"rr":null,"rw":null,"ins":"2022-11-02"},{"id":"1-10471646960","n":"Hillsview - Blythswood Road","pc":"IG3 8SG","lat":51.5693849,"lng":0.1071713,"addr":"96 Blythswood Road, Goodmayes","town":"Ilford","rgn":"London","la":"Redbridge","beds":5,"ty":["Residential homes"],"sp":["Caring for adults over 65 yrs","Caring for adults under 65 yrs","Learning disabilities","Physical disabilities"],"r":"Good","rs":"Good","re":"Good","rc":"Good","rr":"Good","rw":"Good","ins":"2022-01-13"},{"id":"1-10477815321","n":"Bollingbroke House","pc":"S72 9EA","lat":53.5932001,"lng":-1.3776366,"addr":"Common Road, Brierley","town":"Barnsley","rgn":"Yorkshire & Humberside","la":"Barnsley","beds":30,"ty":["Residential homes"],"sp":["Caring for adults over 65 yrs","Caring for adults under 65 yrs","Dementia","Mental health conditions"],"r":"Good","rs":"Good","re":"Good","rc":"Good","rr":"Good","rw":"Requires improvement","ins":"2022-11-02"},{"id":"1-1047798791","n":"Church Green Lodge","pc":"NR7 8ET","lat":52.6615662,"lng":1.3277968,"addr":"Aslake Close","town":"Norwich","rgn":"East","la":"Norfolk","beds":6,"ty":["Nursing homes"],"sp":["Caring for adults over 65 yrs","Caring for adults under 65 yrs","Dementia","Learning disabilities","Mental health conditions","Physical disabilities","Sensory impairment"],"r":"Good","rs":"Good","re":"Requires improvement","rc":"Good","rr":"Good","rw":"Good","ins":"2018-04-17"},{"id":"1-1047798800","n":"Pine Lodge","pc":"NR29 5JH","lat":52.7028451,"lng":1.5864335,"addr":"Repps with Bastwick, High Road","town":"Great Yarmouth","rgn":"East","la":"Norfolk","beds":3,"ty":["Nursing homes"],"sp":["Caring for adults over 65 yrs","Caring for adults under 65 yrs","Dementia","Learning disabilities","Mental health conditions","Physical disabilities","Sensory impairment"],"r":"Good","rs":"Good","re":"Good","rc":"Good","rr":"Good","rw":"Requires improvement","ins":"2019-06-13"},{"id":"1-1047798809","n":"Faro Lodge","pc":"PE30 3YE","lat":52.768848,"lng":0.422459,"addr":"Galyon Road","town":"Kings Lynn","rgn":"East","la":"Norfolk","beds":6,"ty":["Nursing homes"],"sp":["Caring for adults over 65 yrs","Caring for adults under 65 yrs","Dementia","Learning disabilities","Mental health conditions","Physical disabilities","Sensory impairment"],"r":"Requires improvement","rs":"Requires improvement","re":"Requires improvement","rc":"Requires improvement","rr":"Requires improvement","rw":"Requires improvement","ins":"2021-06-18"},{"id":"1-106338834","n":"Clairleigh Nursing Home","pc":"BR1 3AS","lat":51.407438,"lng":0.0314444,"addr":"104 Plaistow Lane","town":"Bromley","rgn":"London","la":"Bromley","beds":50,"ty":["Nursing homes"],"sp":["Caring for adults over 65 yrs","Dementia"],"r":null,"rs":null,"re":null,"rc":null,"rr":null,"rw":null,"ins":"2022-02-04"},{"id":"1-106348462","n":"Magenta","pc":"CT19 5BH","lat":51.0856065,"lng":1.1742702,"addr":"31 St Johns Church Road","town":"Folkestone","rgn":"South East","la":"Kent","beds":3,"ty":["Residential homes"],"sp":["Learning disabilities"],"r":"Good","rs":"Good","re":"Good","rc":"Good","rr":"Outstanding","rw":"Good","ins":"2018-10-26"},{"id":"1-106348492","n":"Blythson Limited - 5 Ashley Avenue","pc":"CT19 4PX","lat":51.0886919,"lng":1.1441738,"addr":"5 Ashley Avenue","town":"Folkestone","rgn":"South East","la":"Kent","beds":3,"ty":["Residential homes"],"sp":["Learning disabilities"],"r":"Good","rs":"Good","re":"Good","rc":"Good","rr":"Good","rw":"Good","ins":"2019-12-31"},{"id":"1-106348506","n":"Blythson Limited - 3 Ashley Avenue","pc":"CT19 4PX","lat":51.0886115,"lng":1.144154,"addr":"3 Ashley Avenue","town":"Folkestone","rgn":"South East","la":"Kent","beds":3,"ty":["Residential homes"],"sp":["Learning disabilities"],"r":"Good","rs":"Good","re":"Good","rc":"Good","rr":"Good","rw":"Good","ins":"2019-02-19"},{"id":"1-106351203","n":"The Grange Residential Home","pc":"IP33 2JT","lat":52.2367261,"lng":0.7048528,"addr":"The Grange, 30 Vinery Road","town":"Bury St Edmunds","rgn":"East","la":"Suffolk","beds":9,"ty":["Residential homes"],"sp":["Caring for adults over 65 yrs","Caring for adults under 65 yrs","Learning disabilities"],"r":"Requires improvement","rs":"Requires improvement","re":"Requires improvement","rc":"Good","rr":"Good","rw":"Requires improvement","ins":"2023-12-14"},{"id":"1-10638179412","n":"Ashurst","pc":"BL1 5HW","lat":53.5843248,"lng":-2.4687635,"addr":"74 Albert Road West","town":"Bolton","rgn":"North West","la":"Bolton","beds":5,"ty":["Residential homes"],"sp":["Caring for adults under 65 yrs","Caring for children","Eating disorders","Learning disabilities","Mental health conditions"],"r":null,"rs":null,"re":null,"rc":null,"rr":null,"rw":null,"ins":"2023-09-08"},{"id":"1-106383494","n":"Ashmore Nursing Home","pc":"IP31 2AD","lat":52.3305045,"lng":0.8819358,"addr":"Barningham Road, Stanton","town":"Bury St Edmunds","rgn":"East","la":"Suffolk","beds":36,"ty":["Nursing homes"],"sp":["Caring for adults over 65 yrs"],"r":null,"rs":null,"re":null,"rc":null,"rr":null,"rw":null,"ins":"2022-10-04"},{"id":"1-10638638256","n":"Broom Lodge","pc":"DL17 0SW","lat":54.6828667,"lng":-1.5378996,"addr":"Cleveland View","town":"Ferryhill","rgn":"North East","la":"County Durham","beds":6,"ty":["Residential homes"],"sp":["Caring for adults under 65 yrs","Learning disabilities"],"r":"Good","rs":"Good","re":"Good","rc":"Good","rr":"Good","rw":"Good","ins":"2022-12-05"},{"id":"1-106409918","n":"St Luke's Hospital - Oxford","pc":"OX3 7PF","lat":51.7575162,"lng":-1.216637,"addr":"4 Latimer Road, Headington","town":"Oxford","rgn":"South East","la":"Oxfordshire","beds":63,"ty":["Nursing homes"],"sp":["Caring for adults over 65 yrs","Caring for adults under 65 yrs"],"r":"Good","rs":"Good","re":"Good","rc":"Good","rr":"Good","rw":"Good","ins":"2020-10-23"},{"id":"1-10644978940","n":"St Mary's","pc":"DN15 8UP","lat":53.6033829,"lng":-0.6800891,"addr":"St. Marys Court","town":"Scunthorpe","rgn":"Yorkshire & Humberside","la":"North Lincolnshire","beds":47,"ty":["Residential homes"],"sp":["Caring for adults over 65 yrs","Caring for adults under 65 yrs","Dementia","Mental health conditions"],"r":null,"rs":null,"re":null,"rc":null,"rr":null,"rw":null,"ins":"2023-02-22"},{"id":"1-10646798947","n":"Petersfield Care Home","pc":"B20 3RP","lat":52.5083264,"lng":-1.9127139,"addr":"60 St. Peters Road, Handsworth","town":"Birmingham","rgn":"West Midlands","la":"Birmingham","beds":5,"ty":["Residential homes"],"sp":["Caring for adults over 65 yrs","Caring for adults under 65 yrs","Learning disabilities"],"r":"Good","rs":"Good","re":"Good","rc":"Good","rr":"Good","rw":"Good","ins":"2022-12-12"},{"id":"1-106487846","n":"Wordsley House","pc":"TS25 5RE","lat":54.677025,"lng":-1.2173681,"addr":"10 Westbourne Road","town":"Hartlepool","rgn":"North East","la":"Hartlepool","beds":8,"ty":["Residential homes"],"sp":["Caring for adults over 65 yrs","Caring for adults under 65 yrs","Mental health conditions"],"r":"Good","rs":"Good","re":"Good","rc":"Good","rr":"Good","rw":"Good","ins":"2022-01-27"},{"id":"1-1065306398","n":"Blossoms Care Home Limited","pc":"DA9 9ND","lat":51.4482172,"lng":0.2818512,"addr":"Mounts Road","town":"Greenhithe","rgn":"South East","la":"Kent","beds":22,"ty":["Residential homes"],"sp":["Caring for adults over 65 yrs","Caring for adults under 65 yrs","Dementia","Learning disabilities","Physical disabilities"],"r":null,"rs":null,"re":null,"rc":null,"rr":null,"rw":null,"ins":"2023-03-09"},{"id":"1-1066052292","n":"The Coach House","pc":"AL10 8AE","lat":51.76057,"lng":-0.222376,"addr":"Old Rectory Drive","town":"Hatfield","rgn":"East","la":"Hertfordshire","beds":10,"ty":["Residential homes"],"sp":["Caring for adults over 65 yrs","Caring for adults under 65 yrs","Mental health conditions"],"r":"Good","rs":"Good","re":"Good","rc":"Good","rr":"Good","rw":"Requires improvement","ins":"2018-04-26"},{"id":"1-106670808","n":"Sussex Grange Residential Care Home","pc":"PO20 9DH","lat":50.728355,"lng":-0.79764,"addr":"14 Vincent Road, Selsey","town":"Chichester","rgn":"South East","la":"West Sussex","beds":20,"ty":["Residential homes"],"sp":["Caring for adults over 65 yrs","Dementia","Sensory impairment"],"r":"Good","rs":"Good","re":"Good","rc":"Good","rr":"Good","rw":"Good","ins":"2018-06-13"},{"id":"1-106682439","n":"Florence House Residential Home","pc":"PE26 1JR","lat":52.4508802,"lng":-0.1192476,"addr":"Westfield Road, Ramsey","town":"Huntingdon","rgn":"East","la":"Cambridgeshire","beds":20,"ty":["Residential homes"],"sp":["Caring for adults over 65 yrs"],"r":"Good","rs":"Good","re":"Good","rc":"Good","rr":"Good","rw":"Good","ins":"2022-01-21"},{"id":"1-106693743","n":"Verulam House Nursing Home","pc":"AL3 4DH","lat":51.7540646,"lng":-0.3420738,"addr":"Verulam House, Verulam Road","town":"St Albans","rgn":"East","la":"Hertfordshire","beds":50,"ty":["Nursing homes"],"sp":["Caring for adults over 65 yrs","Caring for adults under 65 yrs","Physical disabilities"],"r":"Good","rs":"Good","re":"Good","rc":"Good","rr":"Good","rw":"Good","ins":"2022-01-11"},{"id":"1-106699147","n":"Whitehall Lodge Care Home","pc":"B70 0HG","lat":52.5227664,"lng":-2.0271578,"addr":"109 Whitehall Road","town":"West Bromwich","rgn":"West Midlands","la":"Sandwell","beds":3,"ty":["Residential homes"],"sp":["Caring for adults under 65 yrs","Mental health conditions"],"r":"Good","rs":"Good","re":"Good","rc":"Good","rr":"Good","rw":"Good","ins":"2018-08-16"},{"id":"1-106713928","n":"Polesworth Group 32 Station Road","pc":"B78 1BQ","lat":52.6221998,"lng":-1.6138586,"addr":"32 Station Road, Polesworth","town":"Tamworth","rgn":"West Midlands","la":"Warwickshire","beds":8,"ty":["Residential homes"],"sp":["Caring for adults over 65 yrs","Caring for adults under 65 yrs","Learning disabilities"],"r":"Good","rs":"Good","re":"Good","rc":"Good","rr":"Good","rw":"Good","ins":"2020-01-10"},{"id":"1-106713958","n":"Polesworth Group Pooley View","pc":"B78 1BN","lat":52.6224211,"lng":-1.6155702,"addr":"19 Pooley View, Polesworth","town":"Tamworth","rgn":"West Midlands","la":"Warwickshire","beds":4,"ty":["Residential homes"],"sp":["Caring for adults over 65 yrs","Caring for adults under 65 yrs","Learning disabilities"],"r":"Good","rs":"Good","re":"Good","rc":"Good","rr":"Good","rw":"Good","ins":"2018-12-18"},{"id":"1-106714000","n":"Polesworth Group Friary Road","pc":"CV9 3AG","lat":52.5834117,"lng":-1.5461014,"addr":"8 Friary Road","town":"Atherstone","rgn":"West Midlands","la":"Warwickshire","beds":6,"ty":["Residential homes"],"sp":["Caring for adults over 65 yrs","Caring for adults under 65 yrs","Learning disabilities"],"r":"Good","rs":"Good","re":"Good","rc":"Good","rr":"Good","rw":"Good","ins":"2018-11-28"},{"id":"1-106714014","n":"Polesworth Group Pooley Heights","pc":"B78 1JA","lat":52.6188345,"lng":-1.6212438,"addr":"Pooley Heights, Pooley Lane, Polesworth","town":"Tamworth","rgn":"West Midlands","la":"Warwickshire","beds":6,"ty":["Residential homes"],"sp":["Caring for adults over 65 yrs","Caring for adults under 65 yrs","Learning disabilities"],"r":"Good","rs":"Good","re":"Good","rc":"Good","rr":"Good","rw":"Good","ins":"2018-12-11"},{"id":"1-106714028","n":"Highfield","pc":"B78 1RS","lat":52.6022198,"lng":-1.6068726,"addr":"Dunns Lane, Dordon","town":"Tamworth","rgn":"West Midlands","la":"Warwickshire","beds":8,"ty":["Residential homes","Homecare agencies"],"sp":["Caring for adults over 65 yrs","Caring for adults under 65 yrs","Learning disabilities"],"r":"Good","rs":"Good","re":"Good","rc":"Good","rr":"Good","rw":"Good","ins":"2018-05-01"},